{"meta":{"schema_version":"1.0","created":"2026-03-19","description":"Place register with reference and georeferencing status","sources":["places.csv","places_in_sources.csv"],"structure":{"dimensions":[{"name":"place","type":"entity","id_prefix":"pl__"},{"name":"place_type","type":"categorical","description":"Register type classification"},{"name":"reference_status","type":"boolean","description":"Whether place is referenced from source documents"},{"name":"georef_status","type":"categorical","values":["coords","geonames","both","none"]}],"measures":[{"name":"count","type":"integer","description":"Number of place entries"},{"name":"doc_count","type":"integer","description":"Number of source documents referencing this place"}]}},"places":[{"id":"pl__seefeld_tirol","name":"Seefeld (Tirol)","type":"settlement","lat":47.33016,"lng":11.18786,"geonames":"https://www.geonames.org/2765278/seefeld-in-tirol.html","referenced":true,"has_coords":true,"has_geonames":true,"doc_count":1,"decades":[],"file_keys":["f__Satzbuch_CD_e00092_1459-03-02"]},{"id":"pl__friesach","name":"Friesach (Kärnten)","type":"settlement","lat":46.98295,"lng":14.36668,"geonames":"https://www.geonames.org/7871641/friesach.html","referenced":false,"has_coords":true,"has_geonames":true,"doc_count":0,"decades":[]},{"id":"pl__znaim","name":"Znaim (Tschechien)","type":"settlement","lat":48.51625,"lng":16.23706,"geonames":"https://www.geonames.org/3061344/znojmo.html","referenced":false,"has_coords":true,"has_geonames":true,"doc_count":0,"decades":[]},{"id":"pl__grossmugl","name":"Großmugl (N.Ö.)","type":"settlement","lat":48.51625,"lng":16.23706,"geonames":"https://www.geonames.org/7871786/grossmugl.html","referenced":true,"has_coords":true,"has_geonames":true,"doc_count":1,"decades":[],"file_keys":["f__Gewerbuch_D_facs_891_TextRegion_1658319027680_3262"]},{"id":"pl__stollhofen","name":"Stollhofen (N.Ö.)","type":"settlement","lat":48.35226,"lng":15.75963,"geonames":"https://www.geonames.org/2764246/stollhofen.html","referenced":true,"has_coords":true,"has_geonames":true,"doc_count":1,"decades":[],"file_keys":["f__Gewerbuch_D_facs_765_TextRegion_1658324531774_2116"]},{"id":"pl__thiendorf","name":"Thiendorf (Sachsen)","type":"settlement","lat":51.29375,"lng":13.74124,"geonames":"https://www.geonames.org/2822786/thiendorf.html","referenced":true,"has_coords":true,"has_geonames":true,"doc_count":1,"decades":[],"file_keys":["f__Gewerbuch_D_facs_765_TextRegion_1658324531774_2116"]},{"id":"pl__moosbrunn","name":"Moosbrunn (NÖ)","type":"settlement","lat":48.71667,"lng":15.51667,"geonames":null,"referenced":false,"has_coords":true,"has_geonames":false,"doc_count":0,"decades":[]},{"id":"pl__kaumberg","name":"Kaumberg (NÖ)","type":"settlement","lat":48.02415,"lng":15.89842,"geonames":null,"referenced":false,"has_coords":true,"has_geonames":false,"doc_count":0,"decades":[]},{"id":"pl__muenchendorf","name":"Münchendorf (NÖ)","type":"settlement","lat":48.03333,"lng":16.38333,"geonames":null,"referenced":false,"has_coords":true,"has_geonames":false,"doc_count":0,"decades":[]},{"id":"pl__grossstelzendorf","name":"Großstelzendorf (NÖ)","type":"settlement","lat":48.50528,"lng":16.10694,"geonames":null,"referenced":false,"has_coords":true,"has_geonames":false,"doc_count":0,"decades":[]},{"id":"pl__heiligenblut","name":"Heiligenblut am Großglockner (Kärnten)","type":"settlement","lat":47.04918,"lng":12.80439,"geonames":null,"referenced":false,"has_coords":true,"has_geonames":false,"doc_count":0,"decades":[]},{"id":"pl__st_wolfgang","name":"St. Wolfgang im Salzkammergut (OÖ)","type":"settlement","lat":47.73932,"lng":13.44666,"geonames":null,"referenced":false,"has_coords":true,"has_geonames":false,"doc_count":0,"decades":[]},{"id":"pl__ebenhausen","name":"Ebenhausen (Bayern)","type":"settlement","lat":48.67065,"lng":11.46983,"geonames":null,"referenced":false,"has_coords":true,"has_geonames":false,"doc_count":0,"decades":[]},{"id":"pl__stammersdorf","name":"Stammersdorf","type":"settlement","lat":48.30087,"lng":16.41802,"geonames":null,"referenced":false,"has_coords":true,"has_geonames":false,"doc_count":0,"decades":[]},{"id":"pl__strelzhof","name":"Strelzhof (NÖ)","type":"settlement","lat":47.7977,"lng":16.07351,"geonames":null,"referenced":false,"has_coords":true,"has_geonames":false,"doc_count":0,"decades":[]},{"id":"pl__schrattenbach","name":"Schrattenbach (NÖ)","type":"settlement","lat":47.77908,"lng":15.98831,"geonames":null,"referenced":false,"has_coords":true,"has_geonames":false,"doc_count":0,"decades":[]},{"id":"pl__wartberg","name":"Wartberg (heute: Senec, Slowakei)","type":"settlement","lat":48.2195,"lng":17.40043,"geonames":null,"referenced":false,"has_coords":true,"has_geonames":false,"doc_count":0,"decades":[]},{"id":"pl__kastoria","name":"Kastoria (Griechenland)","type":"settlement","lat":40.52165,"lng":21.26341,"geonames":null,"referenced":false,"has_coords":true,"has_geonames":false,"doc_count":0,"decades":[]},{"id":"pl__ulm","name":"Ulm (Baden-Württemberg)","type":"settlement","lat":48.39841,"lng":9.99155,"geonames":null,"referenced":false,"has_coords":true,"has_geonames":false,"doc_count":0,"decades":[]},{"id":"pl__trient","name":"Trient (Trento, Italien)","type":"settlement","lat":46.06787,"lng":11.12108,"geonames":null,"referenced":false,"has_coords":true,"has_geonames":false,"doc_count":0,"decades":[]},{"id":"pl__hollabrunn","name":"Hollabrunn (ehem. Oberhollabrunn, NÖ)","type":"settlement","lat":48.55,"lng":16.08333,"geonames":null,"referenced":false,"has_coords":true,"has_geonames":false,"doc_count":0,"decades":[]},{"id":"pl__zlabings","name":"Zlabings (Slavonice, Tschechien","type":"settlement","lat":48.99753,"lng":15.35154,"geonames":null,"referenced":false,"has_coords":true,"has_geonames":false,"doc_count":0,"decades":[]},{"id":"pl__türnitz","name":"Türnitz (NÖ)","type":"settlement","lat":47.93095,"lng":15.49295,"geonames":null,"referenced":false,"has_coords":true,"has_geonames":false,"doc_count":0,"decades":[]},{"id":"pl__schoenberg_am_kamp","name":"Schönberg am Kamp","type":"settlement","lat":48.51667,"lng":15.7,"geonames":null,"referenced":false,"has_coords":true,"has_geonames":false,"doc_count":0,"decades":[]},{"id":"pl__traismauer","name":"Traismauer (N.Ö.)","type":"settlement","lat":48.35,"lng":15.73333,"geonames":"https://www.geonames.org/2763459/traismauer.html","referenced":true,"has_coords":true,"has_geonames":true,"doc_count":1,"decades":[],"file_keys":["f__Gewerbuch_D_facs_765_TextRegion_1658324531774_2116"]},{"id":"pl__breitenwaida","name":"Breitenwaida (N.Ö.)","type":"settlement","lat":48.51564,"lng":16.0721,"geonames":"https://www.geonames.org/2781450/breitenwaida.html","referenced":false,"has_coords":true,"has_geonames":true,"doc_count":0,"decades":[]},{"id":"pl__matzleinsdorf","name":"Matzleinsdorf (N.Ö.)","type":"settlement","lat":48.2,"lng":15.26667,"geonames":"https://www.geonames.org/2771792/matzleinsdorf.html","referenced":true,"has_coords":true,"has_geonames":true,"doc_count":1,"decades":[],"file_keys":["f__Gewerbuch_D_facs_685_TextRegion_1657538131304_1036"]},{"id":"pl__danzing","name":"Danzig","type":"settlement","lat":54.35227,"lng":18.64912,"geonames":"https://www.geonames.org/3099434/gdansk.html","referenced":true,"has_coords":true,"has_geonames":true,"doc_count":2,"decades":[],"file_keys":["f__Gewerbuch_D_facs_466_TextRegion_1655818304756_176","f__Satzbuch_CD_e00813_1460-03-19"]},{"id":"pl__salzburg","name":"Salzburg","type":"settlement","lat":47.79941,"lng":13.04399,"geonames":"https://www.geonames.org/2766824/salzburg.html","referenced":true,"has_coords":true,"has_geonames":true,"doc_count":1,"decades":[],"file_keys":["f__Gewerbuch_D_facs_466_TextRegion_1655818281636_160"]},{"id":"pl__koenigswart","name":"Königswart (Ortsteil v. Soyen / Bayern)","type":"settlement","lat":48.10808,"lng":12.21006,"geonames":"https://www.geonames.org/2830873/soyen.html","referenced":true,"has_coords":true,"has_geonames":true,"doc_count":1,"decades":[],"file_keys":["f__Gewerbuch_D_facs_759_TextRegion_1659539099672_155"]},{"id":"pl__voesendorf","name":"Vösendorf (N.Ö.)","type":"settlement","lat":48.12107,"lng":16.34036,"geonames":"https://www.geonames.org/2762150/voesendorf.html","referenced":true,"has_coords":true,"has_geonames":true,"doc_count":1,"decades":[],"file_keys":["f__Gewerbuch_D_facs_217_TextRegion_1650005138505_652"]},{"id":"pl__goerlitz","name":"Görlitz (Sachsen)","type":"settlement","lat":51.15518,"lng":14.98853,"geonames":"https://www.geonames.org/2918987/goerlitz.html","referenced":true,"has_coords":true,"has_geonames":true,"doc_count":1,"decades":[],"file_keys":["f__Gewerbuch_D_facs_756_TextRegion_1658304482237_290"]},{"id":"pl__wagram_deutsch","name":"Deutsch-Wagram","type":"settlement","lat":48.29972,"lng":16.56667,"geonames":"https://www.geonames.org/2781017/deutsch-wagram.html","referenced":true,"has_coords":true,"has_geonames":true,"doc_count":1,"decades":[],"file_keys":["f__Gewerbuch_D_facs_95_TextRegion_1649844308215_887"]},{"id":"pl__hadersdorf","name":"Hadersdorf (Wien-Penzing)","type":"settlement","lat":48.21667,"lng":16.23333,"geonames":"https://www.geonames.org/2777094/hadersdorf.html","referenced":true,"has_coords":true,"has_geonames":true,"doc_count":1,"decades":[],"file_keys":["f__Gewerbuch_D_facs_1126_TextRegion_1653992247322_323"]},{"id":"pl__hohenberg","name":"Hohenberg (N.Ö.) | Höheneberg","type":"settlement","lat":48.76667,"lng":14.86667,"geonames":"https://www.geonames.org/2775755/hoehenberg.html","referenced":true,"has_coords":true,"has_geonames":true,"doc_count":1,"decades":[],"file_keys":["f__Gewerbuch_D_facs_291_TextRegion_1653378028073_887"]},{"id":"pl__neusiedl_am_see","name":"Neusiedl am See (Bgl.)","type":"settlement","lat":47.94901,"lng":16.8417,"geonames":"https://www.geonames.org/2770684/neusiedl-am-see.html","referenced":true,"has_coords":true,"has_geonames":true,"doc_count":1,"decades":[],"file_keys":["f__Satzbuch_CD_e00095_1460-09-05"]},{"id":"pl__kematen","name":"Kematen (O.Ö.)","type":"settlement","lat":48.17645,"lng":13.85874,"geonames":"https://www.geonames.org/2774549/kematen-am-innbach.html","referenced":true,"has_coords":true,"has_geonames":true,"doc_count":3,"decades":[],"file_keys":["f__Gewerbuch_D_facs_620_TextRegion_1658731841659_98","f__Gewerbuch_D_facs_946_TextRegion_1657874856080_246","f__Satzbuch_CD_e01949_1459-06-14"]},{"id":"pl__neuhofen_an_der_krems","name":"Neuhofen an der Krems (N.Ö.)","type":"settlement","lat":48.13866,"lng":14.22764,"geonames":"https://www.geonames.org/2770750/neuhofen-an-der-krems.html","referenced":false,"has_coords":true,"has_geonames":true,"doc_count":0,"decades":[]},{"id":"pl__schoenberg","name":"Schönberg (Bayern)","type":"settlement","lat":48.8397,"lng":13.33714,"geonames":"https://www.geonames.org/2836963/schoenberg.html","referenced":true,"has_coords":true,"has_geonames":true,"doc_count":1,"decades":[],"file_keys":["f__Satzbuch_CD_e00787_1458-11-29"]},{"id":"pl__koenigstetten","name":"Königstetten (N.Ö.)","type":"settlement","lat":48.29747,"lng":16.15854,"geonames":"https://www.geonames.org/7871914/koenigstetten.html","referenced":true,"has_coords":true,"has_geonames":true,"doc_count":2,"decades":[],"file_keys":["f__Satzbuch_CD_e00782_1458-01-18","f__Satzbuch_CD_e00812_1460-03-19"]},{"id":"pl__brodersdorf","name":"Brodersdorf (N.Ö.)","type":"settlement","lat":47.94268,"lng":16.46936,"geonames":"https://www.geonames.org/2781040/deutschbrodersdorf.html","referenced":true,"has_coords":true,"has_geonames":true,"doc_count":1,"decades":[],"file_keys":["f__Gewerbuch_D_facs_1126_TextRegion_1653999463747_733"]},{"id":"pl__steindorf","name":"Steindorf","type":"settlement","lat":47.96019,"lng":13.23954,"geonames":"https://www.geonames.org/2764482/steindorf.html","referenced":true,"has_coords":true,"has_geonames":true,"doc_count":1,"decades":[],"file_keys":["f__Satzbuch_CD_e00083_1457-10-26"]},{"id":"pl__egmond","name":"Egmond (Holland)","type":"settlement","lat":52.62333,"lng":4.65278,"geonames":"https://www.geonames.org/2756302/egmond-aan-den-hoef.html","referenced":false,"has_coords":true,"has_geonames":true,"doc_count":0,"decades":[]},{"id":"pl__mautern_an_der_Donau","name":"Mautern a. d. Donau","type":"settlement","lat":48.39319,"lng":15.57793,"geonames":"https://www.geonames.org/2771766/mautern.html","referenced":true,"has_coords":true,"has_geonames":true,"doc_count":1,"decades":[],"file_keys":["f__Gewerbuch_D_facs_36_TextRegion_1646407442883_477"]},{"id":"pl__oedenburg","name":"Ödenburg","type":"settlement","lat":47.68501,"lng":16.59049,"geonames":"https://www.geonames.org/3045190/sopron.html","referenced":true,"has_coords":true,"has_geonames":true,"doc_count":1,"decades":[],"file_keys":["f__Gewerbuch_D_facs_430_TextRegion_1644915354964_1154"]},{"id":"pl__koenigsberg","name":"Königsberg in Preußen","type":"settlement","lat":54.70649,"lng":20.51095,"geonames":"https://www.geonames.org/554234/kaliningrad.html","referenced":true,"has_coords":true,"has_geonames":true,"doc_count":2,"decades":[],"file_keys":["f__Gewerbuch_D_facs_566_TextRegion_1644503869210_2689","f__Gewerbuch_D_facs_615_TextRegion_1644502141743_1946"]},{"id":"pl__korneuburg","name":"Korneuburg","type":"settlement","lat":48.35,"lng":16.33333,"geonames":"https://www.geonames.org/2773698/korneuburg.html","referenced":true,"has_coords":true,"has_geonames":true,"doc_count":5,"decades":[],"file_keys":["f__Gewerbuch_D_facs_426_TextRegion_1644914302225_784","f__Gewerbuch_D_facs_432_TextRegion_1654695021928_386","f__Satzbuch_CD_e00092_1459-03-02","f__Satzbuch_CD_e01025_1459-03-12","f__Satzbuch_CD_e01474_1459-08-27"]},{"id":"pl__landsberg","name":"Landsberg am Lech","type":"settlement","lat":48.04819,"lng":10.88282,"geonames":"https://www.geonames.org/2881509/landsberg-am-lech.html","referenced":false,"has_coords":true,"has_geonames":true,"doc_count":0,"decades":[]},{"id":"pl__albersdorf","name":"Albersdorf (Steiermark)","type":"settlement","lat":47.12166,"lng":15.69826,"geonames":"https://www.geonames.org/2782827/albersdorf.html","referenced":true,"has_coords":true,"has_geonames":true,"doc_count":1,"decades":[],"file_keys":["f__Satzbuch_CD_e01020_1457-09-07"]},{"id":"pl__prellenkirchen","name":"Prellenkirchen (N.Ö.)","type":"settlement","lat":48.06877,"lng":16.95998,"geonames":"https://www.geonames.org/7872852/prellenkirchen.html","referenced":false,"has_coords":true,"has_geonames":true,"doc_count":0,"decades":[]},{"id":"pl__feldsberg","name":"Feldsberg (N.Ö.)","type":"settlement","lat":48.74069,"lng":16.75499,"geonames":"https://www.geonames.org/3063409/valtice.html","referenced":false,"has_coords":true,"has_geonames":true,"doc_count":0,"decades":[]},{"id":"pl__burgschleinitz","name":"Burgschleinitz (N.Ö.)","type":"settlement","lat":48.6,"lng":15.81667,"geonames":"https://www.geonames.org/2781177/burgschleinitz.html","referenced":false,"has_coords":true,"has_geonames":true,"doc_count":0,"decades":[]},{"id":"pl__sterzing","name":"Sterzing","type":"settlement","lat":46.89313,"lng":11.42961,"geonames":"https://www.geonames.org/3164065/vipiteno.html","referenced":true,"has_coords":true,"has_geonames":true,"doc_count":1,"decades":[],"file_keys":["f__QGW_3697"]},{"id":"pl__poetzleinsdorf","name":"Pötzleinsdorf (XVIII. Bezirk)","type":"settlement","lat":48.24354,"lng":16.3062,"geonames":"https://www.geonames.org/2768462/poetzleinsdorf.html","referenced":true,"has_coords":true,"has_geonames":true,"doc_count":1,"decades":[],"file_keys":["f__QGW_3723"]},{"id":"pl__liesing","name":"Liesing (N.Ö.)","type":"settlement","lat":48.13333,"lng":16.3,"geonames":"https://www.geonames.org/2772484/gemeindebezirk-liesing.html","referenced":true,"has_coords":true,"has_geonames":true,"doc_count":1,"decades":[],"file_keys":["f__QGW_3740"]},{"id":"pl__rodaun","name":"Rodaun (N.Ö.)","type":"settlement","lat":48.13307,"lng":16.25839,"geonames":"https://www.geonames.org/2767332/rodaun.html","referenced":true,"has_coords":true,"has_geonames":true,"doc_count":3,"decades":[],"file_keys":["f__Gewerbuch_D_facs_431_TextRegion_1654694961924_367","f__QGW_3740","f__Satzbuch_CD_e01779_1456-12-17"]},{"id":"pl__mistelbach","name":"Mistelbach (N.Ö.)","type":"settlement","lat":48.57795,"lng":16.57791,"geonames":"https://www.geonames.org/7871844/mistelbach.html","referenced":true,"has_coords":true,"has_geonames":true,"doc_count":2,"decades":[],"file_keys":["f__Gewerbuch_D_facs_891_TextRegion_1658323152970_3622","f__QGW_3745"]},{"id":"pl__himberg","name":"Himberg (N.Ö.)","type":"settlement","lat":48.06443,"lng":16.44801,"geonames":"https://www.geonames.org/7871948/himberg.html","referenced":true,"has_coords":true,"has_geonames":true,"doc_count":1,"decades":[],"file_keys":["f__QGW_3746"]},{"id":"pl__burghausen","name":"Burghausen","type":"settlement","lat":48.16925,"lng":12.83139,"geonames":"https://www.geonames.org/2941279/burghausen.html","referenced":false,"has_coords":true,"has_geonames":true,"doc_count":0,"decades":[]},{"id":"pl__bamberg","name":"Bamberg","type":"settlement","lat":49.89873,"lng":10.90067,"geonames":"https://www.geonames.org/2952984/bamberg.html","referenced":true,"has_coords":true,"has_geonames":true,"doc_count":1,"decades":[],"file_keys":["f__QGW_3726"]},{"id":"pl__kniegnitz","name":"Kniegnitz (bei Breslau)","type":"settlement","lat":51.15197,"lng":16.27114,"geonames":"https://www.geonames.org/10630057/ksieginice.html","referenced":true,"has_coords":true,"has_geonames":true,"doc_count":1,"decades":[],"file_keys":["f__QGW_3703"]},{"id":"pl__klaitzing","name":"Klaitzing, verschollen (XIX. Bezirk)","type":"settlement","lat":null,"lng":null,"geonames":null,"referenced":true,"has_coords":false,"has_geonames":false,"doc_count":3,"decades":[]},{"id":"pl__memmingen","name":"Memmingen (Bayern)","type":"settlement","lat":47.98372,"lng":10.18527,"geonames":"https://www.geonames.org/2871992/memmingen.html","referenced":true,"has_coords":true,"has_geonames":true,"doc_count":6,"decades":[],"file_keys":["f__QGW_3692","f__Satzbuch_CD_e00366_1457-03-14","f__Satzbuch_CD_e01021_1457-09-23","f__Satzbuch_CD_e01467_1456-12-20","f__Satzbuch_CD_e01602_1459-07-06","f__Satzbuch_CD_e01693_1448-12-13"]},{"id":"pl__grub_bei_dietmannsdorf","name":"Grub bei Dietmannsdorf (N.Ö.)","type":"settlement","lat":48.03333,"lng":14.56667,"geonames":"https://www.geonames.org/2777533/grub.html","referenced":true,"has_coords":true,"has_geonames":true,"doc_count":3,"decades":[],"file_keys":["f__Gewerbuch_D_facs_455_TextRegion_1655810090938_1124","f__Satzbuch_CD_e00418_1456-12-13","f__Satzbuch_CD_e00421_1458-06-14"]},{"id":"pl__trautmannsdorf_an_der_leitha","name":"Trautmannsdorf a. d. Leitha (N.Ö.)","type":"settlement","lat":48.03809,"lng":16.66017,"geonames":"https://www.geonames.org/7871726/trautmannsdorf-an-der-leitha.html","referenced":false,"has_coords":true,"has_geonames":true,"doc_count":0,"decades":[]},{"id":"pl__eckhartsau","name":"Eckhartsau (N.Ö.)","type":"settlement","lat":48.1483,"lng":16.80073,"geonames":"https://www.geonames.org/7871732/eckartsau.html","referenced":true,"has_coords":true,"has_geonames":true,"doc_count":1,"decades":[],"file_keys":["f__Satzbuch_CD_e01007_1455-12-22"]},{"id":"pl__gundelfingen_an_der_donaau","name":"Gundelfingen an der Donau (Bayern)","type":"settlement","lat":48.55347,"lng":10.37223,"geonames":"https://www.geonames.org/2913711/gundelfingen.html","referenced":false,"has_coords":true,"has_geonames":true,"doc_count":0,"decades":[]},{"id":"pl__niederhollabrunn","name":"Niederhollabrunn (NÖ)","type":"settlement","lat":48.46022,"lng":16.29799,"geonames":"https://www.geonames.org/7871795/niederhollabrunn.html","referenced":false,"has_coords":true,"has_geonames":true,"doc_count":0,"decades":[]},{"id":"pl__waidhofen_an_der_thaya","name":"Waidhofen an der Thaya (NÖ)","type":"settlement","lat":48.81667,"lng":15.28333,"geonames":"https://www.geonames.org/2762079/waidhofen-an-der-thaya.html","referenced":false,"has_coords":true,"has_geonames":true,"doc_count":0,"decades":[]},{"id":"pl__oberzeiring","name":"Oberzeiring (Stmk.)","type":"settlement","lat":47.25,"lng":14.48333,"geonames":"https://www.geonames.org/2769573/oberzeiring.html","referenced":false,"has_coords":true,"has_geonames":true,"doc_count":0,"decades":[]},{"id":"pl__zoebing","name":"Zöbing (NÖ)","type":"settlement","lat":48.48333,"lng":15.68333,"geonames":"https://www.geonames.org/2760487/zoebing.html","referenced":false,"has_coords":true,"has_geonames":true,"doc_count":0,"decades":[]},{"id":"pl__raffelhof","name":"Raffelhof (NÖ), ehemals Raffoldsdorf","type":"settlement","lat":48.61028,"lng":16.11444,"geonames":"https://www.geonames.org/3320304/raffelhof.html","referenced":false,"has_coords":true,"has_geonames":true,"doc_count":0,"decades":[]},{"id":"pl__baden","name":"Baden (N.Ö.)","type":"settlement","lat":48.00543,"lng":16.23264,"geonames":"https://www.geonames.org/2782067/baden.html","referenced":true,"has_coords":true,"has_geonames":true,"doc_count":4,"decades":[],"file_keys":["f__Gewerbuch_D_facs_168_TextRegion_1649941558693_997","f__Gewerbuch_D_facs_265_TextRegion_1653374853044_245","f__Gewerbuch_D_facs_575_TextRegion_1656869352609_3033","f__Satzbuch_CD_e01004_1454-12-13"]},{"id":"pl__russbach","name":"Russbach (N.Ö.)","type":"settlement","lat":48.45,"lng":16.03333,"geonames":"https://www.geonames.org/2770530/niederrussbach.html","referenced":true,"has_coords":true,"has_geonames":true,"doc_count":3,"decades":[],"file_keys":["f__Gewerbuch_D_facs_42_TextRegion_1646409237120_703","f__Gewerbuch_D_facs_582_TextRegion_1656869536761_3211","f__Gewerbuch_D_facs_583_TextRegion_1666528869073_2220"]},{"id":"pl__prigglitz","name":"Prigglitz","type":"settlement","lat":47.70053,"lng":15.92462,"geonames":"https://www.geonames.org/7871868/prigglitz.html","referenced":false,"has_coords":true,"has_geonames":true,"doc_count":0,"decades":[]},{"id":"pl__pfaffstetten","name":"Pfaffstetten (N.Ö.)","type":"settlement","lat":48.53333,"lng":15.85,"geonames":"https://www.geonames.org/2768951/pfaffstetten.html","referenced":true,"has_coords":true,"has_geonames":true,"doc_count":4,"decades":[],"file_keys":["f__Gewerbuch_D_facs_95_TextRegion_1649844308215_887","f__Satzbuch_CD_e00232_1449-07-07","f__Satzbuch_CD_e00731_1454-11-06","f__Satzbuch_CD_e01434_1448-06-14"]},{"id":"pl__ramsau","name":"Ramsau","type":"settlement","lat":47.41667,"lng":13.63333,"geonames":"https://www.geonames.org/2767995/ramsau.html","referenced":false,"has_coords":true,"has_geonames":true,"doc_count":0,"decades":[]},{"id":"pl__rossatz","name":"Rossatz an der Donau","type":"settlement","lat":48.39639,"lng":15.50446,"geonames":"https://www.geonames.org/2767172/rossatz.html","referenced":false,"has_coords":true,"has_geonames":true,"doc_count":0,"decades":[]},{"id":"pl__zeiselmauer","name":"Zeiselmauer","type":"settlement","lat":48.32852,"lng":16.17565,"geonames":"https://www.geonames.org/2760652/zeiselmauer.html","referenced":false,"has_coords":true,"has_geonames":true,"doc_count":0,"decades":[]},{"id":"pl__greifenstein","name":"Greifenstein","type":"settlement","lat":48.34667,"lng":16.24226,"geonames":"https://www.geonames.org/2778047/greifenstein.html","referenced":false,"has_coords":true,"has_geonames":true,"doc_count":0,"decades":[]},{"id":"pl__viehofen","name":"Viehofen","type":"settlement","lat":48.21667,"lng":15.61667,"geonames":"https://www.geonames.org/2762391/viehofen.html","referenced":false,"has_coords":true,"has_geonames":true,"doc_count":0,"decades":[]},{"id":"pl__arnsdorf","name":"Arnsdorf","type":"settlement","lat":48.36412,"lng":15.46846,"geonames":"https://www.geonames.org/7872923/rossatz-arnsdorf.html","referenced":false,"has_coords":true,"has_geonames":true,"doc_count":0,"decades":[]},{"id":"pl__guttaring","name":"Guttaring (Kärnten)","type":"settlement","lat":46.91785,"lng":14.50709,"geonames":"https://www.geonames.org/7872769/guttaring.html","referenced":false,"has_coords":true,"has_geonames":true,"doc_count":0,"decades":[]},{"id":"pl__eipeldau","name":"Eipeldau (N.Ö.) | Leopoldau","type":"settlement","lat":48.26667,"lng":16.45,"geonames":"https://www.geonames.org/3333516/leopoldau.html","referenced":false,"has_coords":true,"has_geonames":true,"doc_count":0,"decades":[]},{"id":"pl__radendorf","name":"Radendorf (N.Ö.)","type":"settlement","lat":46.54788,"lng":13.79067,"geonames":"https://www.geonames.org/2768131/radendorf.html","referenced":true,"has_coords":true,"has_geonames":true,"doc_count":1,"decades":[],"file_keys":["f__QGW_3657"]},{"id":"pl__pulkau","name":"Pulkau (N.Ö.)","type":"settlement","lat":48.70484,"lng":15.86031,"geonames":"https://www.geonames.org/2768255/pulkau.html","referenced":false,"has_coords":true,"has_geonames":true,"doc_count":0,"decades":[]},{"id":"pl__niedernkirchen","name":"Niedernkirchen (Bayern)","type":"settlement","lat":48.46586,"lng":12.80985,"geonames":"https://www.geonames.org/2863037/niedernkirchen.html","referenced":false,"has_coords":true,"has_geonames":true,"doc_count":0,"decades":[]},{"id":"pl__retzbach","name":"Retzbach (N.Ö.)","type":"settlement","lat":48.7659,"lng":16.00907,"geonames":"https://www.geonames.org/7872891/retzbach.html","referenced":false,"has_coords":true,"has_geonames":true,"doc_count":0,"decades":[]},{"id":"pl__nappersdorf","name":"Nappersdorf (N.Ö.)","type":"settlement","lat":48.61667,"lng":16.18333,"geonames":"https://www.geonames.org/2770936/nappersdorf.html","referenced":false,"has_coords":true,"has_geonames":true,"doc_count":0,"decades":[]},{"id":"pl__perlesreut","name":"Perlesreut (Bayern)","type":"settlement","lat":48.78181,"lng":13.4384,"geonames":"https://www.geonames.org/2854840/perlesreut.html","referenced":false,"has_coords":true,"has_geonames":true,"doc_count":0,"decades":[]},{"id":"pl__horn","name":"Horn (N.Ö.)","type":"settlement","lat":48.66274,"lng":15.65663,"geonames":"https://www.geonames.org/2775516/horn.html","referenced":false,"has_coords":true,"has_geonames":true,"doc_count":0,"decades":[]},{"id":"pl__kreuzenstein","name":"Keuzenstein (N.Ö.)","type":"settlement","lat":48.38333,"lng":16.31667,"geonames":"https://www.geonames.org/2773491/burg-kreuzenstein.html","referenced":false,"has_coords":true,"has_geonames":true,"doc_count":0,"decades":[]},{"id":"pl__parbasdorf","name":"Parbasdorf (N.Ö.)","type":"settlement","lat":48.28333,"lng":16.6,"geonames":"https://www.geonames.org/2769246/parbasdorf.html","referenced":true,"has_coords":true,"has_geonames":true,"doc_count":1,"decades":[],"file_keys":["f__QGW_3640"]},{"id":"pl__pitten","name":"Pitten (N.Ö.)","type":"settlement","lat":47.71667,"lng":16.18333,"geonames":"https://www.geonames.org/2768746/pitten.html","referenced":false,"has_coords":true,"has_geonames":true,"doc_count":0,"decades":[]},{"id":"pl__mitterndorf","name":"Mitterndorf (N.Ö.)","type":"settlement","lat":48.16667,"lng":15.48333,"geonames":"https://www.geonames.org/2771416/mitterndorf.html","referenced":false,"has_coords":true,"has_geonames":true,"doc_count":0,"decades":[]},{"id":"pl__ochsenfurt","name":"Ochsenfurt (Bayern)","type":"settlement","lat":49.66429,"lng":10.06227,"geonames":"https://www.geonames.org/2858333/ochsenfurt.html","referenced":false,"has_coords":true,"has_geonames":true,"doc_count":0,"decades":[]},{"id":"pl__simonsfeld","name":"Simonsfeld (N.Ö.)","type":"settlement","lat":48.5,"lng":16.33333,"geonames":"https://www.geonames.org/2765022/simonsfeld.html","referenced":false,"has_coords":true,"has_geonames":true,"doc_count":0,"decades":[]},{"id":"pl__aschaffenburg","name":"Aschaffenburg","type":"settlement","lat":49.96694,"lng":9.14778,"geonames":"https://www.geonames.org/3220890/kreisfreie-stadt-aschaffenburg.html","referenced":false,"has_coords":true,"has_geonames":true,"doc_count":0,"decades":[]},{"id":"pl__goepfritz","name":"Göttfritz [sic] Göpfritz (N.Ö.),","type":"settlement","lat":48.73068,"lng":15.39102,"geonames":"https://www.geonames.org/7873080/goepfritz-an-der-wild.html","referenced":true,"has_coords":true,"has_geonames":true,"doc_count":1,"decades":[],"file_keys":["f__QGW_3584"]},{"id":"pl__schaumberg","name":"Schaumberg (O.Ö.)","type":"settlement","lat":48.34239,"lng":13.9753,"geonames":"https://www.geonames.org/2766090/schaumberg.html","referenced":true,"has_coords":true,"has_geonames":true,"doc_count":3,"decades":[],"file_keys":["f__QGW_3583","f__QGW_3584","f__QGW_3677"]},{"id":"pl__tulln","name":"Tulln (N.Ö.)","type":"settlement","lat":48.32829,"lng":16.05858,"geonames":"https://www.geonames.org/2763266/tulln.html","referenced":false,"has_coords":true,"has_geonames":true,"doc_count":0,"decades":[]},{"id":"pl__oberlaa","name":"Oberlaa (Wien)","type":"settlement","lat":48.13771,"lng":16.39984,"geonames":"https://www.geonames.org/2769993/oberlaa.html","referenced":true,"has_coords":true,"has_geonames":true,"doc_count":1,"decades":[],"file_keys":["f__QGW_3566"]},{"id":"pl__nabburg","name":"Nabburg (Bayern)","type":"settlement","lat":49.45347,"lng":12.17996,"geonames":"https://www.geonames.org/2867262/nabburg.html","referenced":true,"has_coords":true,"has_geonames":true,"doc_count":2,"decades":[],"file_keys":["f__Gewerbuch_D_facs_682_TextRegion_1657537883985_943","f__Satzbuch_CD_e00710_1453-10-05"]},{"id":"pl__grillenberg","name":"Grillenberg (N.Ö.)","type":"settlement","lat":48.50361,"lng":16.37333,"geonames":"https://www.geonames.org/3320742/grillenberg.html","referenced":false,"has_coords":true,"has_geonames":true,"doc_count":0,"decades":[]},{"id":"pl__venzone","name":"Venzone (Italien)","type":"settlement","lat":46.33031,"lng":13.13825,"geonames":"https://www.geonames.org/3164570/venzone.html","referenced":false,"has_coords":true,"has_geonames":true,"doc_count":0,"decades":[]},{"id":"pl__waldhausen","name":"Waldhausen","type":"settlement","lat":48.27377,"lng":14.9475,"geonames":"https://www.geonames.org/2762012/waldhausen-im-strudengau.html","referenced":false,"has_coords":true,"has_geonames":true,"doc_count":0,"decades":[]},{"id":"pl__stadlau","name":"Stadlau","type":"settlement","lat":48.23333,"lng":16.45,"geonames":"https://www.geonames.org/2764735/stadlau.html","referenced":false,"has_coords":true,"has_geonames":true,"doc_count":0,"decades":[]},{"id":"pl__pottendorf","name":"Pottendorf (N.Ö.)","type":"settlement","lat":47.9,"lng":16.38333,"geonames":"https://www.geonames.org/2768472/pottendorf.html","referenced":true,"has_coords":true,"has_geonames":true,"doc_count":1,"decades":[],"file_keys":["f__Gewerbuch_D_facs_619_TextRegion_1657532937573_261"]},{"id":"pl__gmunden","name":"Gmunden (O.Ö.)","type":"settlement","lat":47.91839,"lng":13.79933,"geonames":"https://www.geonames.org/2778436/gmunden.html","referenced":false,"has_coords":true,"has_geonames":true,"doc_count":0,"decades":[]},{"id":"pl__schrattenthal","name":"Schrattenthal (N.Ö.)","type":"settlement","lat":48.74001,"lng":15.89765,"geonames":"https://www.geonames.org/7872892/schrattenthal.html","referenced":false,"has_coords":true,"has_geonames":true,"doc_count":0,"decades":[]},{"id":"pl__waehring","name":"Währing (XVIII. Bezirk)","type":"settlement","lat":48.22611,"lng":16.34484,"geonames":"https://www.geonames.org/12196319/waehring.html","referenced":true,"has_coords":true,"has_geonames":true,"doc_count":2,"decades":[],"file_keys":["f__Gewerbuch_D_facs_450_TextRegion_1655809404658_991","f__Gewerbuch_D_facs_95_TextRegion_1649844308215_887"]},{"id":"pl__asparn_an_der_donau","name":"Asparn a. d. Donau (N.Ö.)","type":"settlement","lat":48.21806,"lng":16.48306,"geonames":"https://www.geonames.org/2782315/aspern.html","referenced":true,"has_coords":true,"has_geonames":true,"doc_count":2,"decades":[],"file_keys":["f__Gewerbuch_D_facs_52_TextRegion_1649668106418_72","f__Satzbuch_CD_e00714_1453-11-28"]},{"id":"pl__haringsee","name":"Haringsee (N.Ö.)","type":"settlement","lat":48.19356,"lng":16.77045,"geonames":"https://www.geonames.org/7871734/haringsee.html","referenced":true,"has_coords":true,"has_geonames":true,"doc_count":6,"decades":[],"file_keys":["f__Gewerbuch_D_facs_167_TextRegion_1649941440580_975","f__Gewerbuch_D_facs_167_TextRegion_1649941459770_984","f__QGW_3554","f__QGW_3555","f__QGW_3556","f__Satzbuch_CD_e01162_1454-07-15"]},{"id":"pl__kritzendorf","name":"Kritzendorf (N.Ö.)","type":"settlement","lat":48.32932,"lng":16.30011,"geonames":"https://www.geonames.org/2773420/kritzendorf.html","referenced":true,"has_coords":true,"has_geonames":true,"doc_count":1,"decades":[],"file_keys":["f__QGW_3528"]},{"id":"pl__schlierbach","name":"Schlierbach (O.Ö.)","type":"settlement","lat":47.93636,"lng":14.12018,"geonames":"https://www.geonames.org/2765894/schlierbach.html","referenced":false,"has_coords":true,"has_geonames":true,"doc_count":0,"decades":[]},{"id":"pl__hermannstadt","name":"Hermannstadt (Siebenbürgen)","type":"settlement","lat":45.78428,"lng":24.14383,"geonames":"https://www.geonames.org/667267/sibiu.html","referenced":false,"has_coords":true,"has_geonames":true,"doc_count":0,"decades":[]},{"id":"pl__duernstein","name":"Dürnstein (N.Ö.)","type":"settlement","lat":48.39582,"lng":15.51973,"geonames":"https://www.geonames.org/2780604/duernstein.html","referenced":false,"has_coords":true,"has_geonames":true,"doc_count":0,"decades":[]},{"id":"pl__judenburg","name":"Judenburg (Steiermark)","type":"settlement","lat":47.16667,"lng":14.66667,"geonames":"https://www.geonames.org/2775020/judenburg.html","referenced":false,"has_coords":true,"has_geonames":true,"doc_count":0,"decades":[]},{"id":"pl__wischau","name":"Wischau (Mähren)","type":"settlement","lat":49.27747,"lng":16.99897,"geonames":"https://www.geonames.org/3062283/vyskov.html","referenced":false,"has_coords":true,"has_geonames":true,"doc_count":0,"decades":[]},{"id":"pl__siena","name":"Siena","type":"settlement","lat":43.31822,"lng":11.33064,"geonames":"https://www.geonames.org/3166548/siena.html","referenced":false,"has_coords":true,"has_geonames":true,"doc_count":0,"decades":[]},{"id":"pl__gumpendorf","name":"Gumpendorf (VI. Bezirk)","type":"settlement","lat":48.19097,"lng":16.34797,"geonames":"https://www.geonames.org/12382090/gumpendorf.html","referenced":false,"has_coords":true,"has_geonames":true,"doc_count":0,"decades":[]},{"id":"pl__ybbs","name":"Ybbs (N.Ö.)","type":"settlement","lat":48.16667,"lng":15.08333,"geonames":"https://www.geonames.org/2760772/ybbs-an-der-donau.html","referenced":false,"has_coords":true,"has_geonames":true,"doc_count":0,"decades":[]},{"id":"pl__schaerding","name":"Schärding (O.Ö.)","type":"settlement","lat":48.45294,"lng":13.43722,"geonames":"https://www.geonames.org/2766155/schaerding.html","referenced":true,"has_coords":true,"has_geonames":true,"doc_count":1,"decades":[],"file_keys":["f__QGW_3479"]},{"id":"pl__kranichberg","name":"Kranichberg (N.Ö.)","type":"settlement","lat":47.63333,"lng":15.96667,"geonames":"https://www.geonames.org/2773600/kranichberg.html","referenced":true,"has_coords":true,"has_geonames":true,"doc_count":2,"decades":[],"file_keys":["f__Gewerbuch_D_facs_437_TextRegion_1654697501306_578","f__QGW_3453"]},{"id":"pl__hof","name":"Hof (N.Ö.)","type":"settlement","lat":47.95,"lng":16.58333,"geonames":"https://www.geonames.org/2775856/hof-am-leithaberge.html","referenced":false,"has_coords":true,"has_geonames":true,"doc_count":0,"decades":[]},{"id":"pl__baumgarten","name":"Baumgarten (XIII. Bezirk)","type":"settlement","lat":48.18333,"lng":16.43333,"geonames":"https://www.geonames.org/2765028/simmering.html","referenced":true,"has_coords":true,"has_geonames":true,"doc_count":3,"decades":[],"file_keys":["f__Gewerbuch_D_facs_1032_TextRegion_1655369670655_8","f__Satzbuch_CD_e00750_1456-04-19","f__Satzbuch_CD_e01708_1453-06-11"]},{"id":"pl__simmering","name":"Simmering (XI. Bezirk)","type":"settlement","lat":48.18333,"lng":16.43333,"geonames":"https://www.geonames.org/2765028/simmering.html","referenced":true,"has_coords":true,"has_geonames":true,"doc_count":1,"decades":[],"file_keys":["f__Gewerbuch_D_facs_217_TextRegion_1650005138505_652"]},{"id":"pl__amstetten","name":"Amstetten (N.Ö)","type":"settlement","lat":48.1229,"lng":14.87206,"geonames":"https://www.geonames.org/2782555/amstetten.html","referenced":true,"has_coords":true,"has_geonames":true,"doc_count":1,"decades":[],"file_keys":["f__QGW_3432"]},{"id":"pl__ebersdorf","name":"Ebersdorf (II. und XI. Bezirk)","type":"settlement","lat":null,"lng":null,"geonames":null,"referenced":false,"has_coords":false,"has_geonames":false,"doc_count":0,"decades":[]},{"id":"pl__pressburg","name":"Pressburg","type":"settlement","lat":48.14816,"lng":17.10674,"geonames":"https://www.geonames.org/3060972/bratislava.html","referenced":true,"has_coords":true,"has_geonames":true,"doc_count":4,"decades":[],"file_keys":["f__Gewerbuch_D_facs_41_TextRegion_1647247233948_144","f__Gewerbuch_D_facs_447_TextRegion_1665397205223_259","f__Gewerbuch_D_facs_943_TextRegion_1657885064252_767","f__QGW_3529"]},{"id":"pl__retz","name":"Retz (N.Ö.)","type":"settlement","lat":48.75712,"lng":15.95485,"geonames":"http://www.geonames.org/2767521/retz.html","referenced":true,"has_coords":true,"has_geonames":true,"doc_count":2,"decades":[],"file_keys":["f__Gewerbuch_D_facs_1041_TextRegion_1654701631360_1262","f__Gewerbuch_D_facs_442_TextRegion_1655808643439_691"]},{"id":"pl__voettau","name":"Vöttau (Mähren)","type":"settlement","lat":null,"lng":null,"geonames":null,"referenced":true,"has_coords":false,"has_geonames":false,"doc_count":1,"decades":[]},{"id":"pl__mannersdorf","name":"Mannersdorf (N.Ö.)","type":"settlement","lat":null,"lng":null,"geonames":null,"referenced":true,"has_coords":false,"has_geonames":false,"doc_count":1,"decades":[]},{"id":"pl__muehlleitten","name":"Mühlleitten (N.Ö.)","type":"settlement","lat":null,"lng":null,"geonames":null,"referenced":true,"has_coords":false,"has_geonames":false,"doc_count":4,"decades":[]},{"id":"pl__loosdorf","name":"Loosdorf (NÖ)","type":"settlement","lat":48.2,"lng":15.4,"geonames":"https://www.geonames.org/2772264/loosdorf.html","referenced":false,"has_coords":true,"has_geonames":true,"doc_count":0,"decades":[]},{"id":"pl__hacking","name":"Hacking (XIII.Bezirk)","type":"settlement","lat":48.2,"lng":16.25,"geonames":"https://www.geonames.org/2777109/hacking.html","referenced":false,"has_coords":true,"has_geonames":true,"doc_count":0,"decades":[]},{"id":"pl__neuburg_am_inn","name":"Neuburg am Inn","type":"settlement","lat":48.50654,"lng":13.44718,"geonames":"https://www.geonames.org/2866075/neuburg.html","referenced":false,"has_coords":true,"has_geonames":true,"doc_count":0,"decades":[]},{"id":"pl__ried","name":"Ried (O.Ö.)","type":"settlement","lat":48.21123,"lng":13.48855,"geonames":"https://www.geonames.org/2767471/ried-im-innkreis.html","referenced":true,"has_coords":true,"has_geonames":true,"doc_count":1,"decades":[],"file_keys":["f__QGW_3304"]},{"id":"pl__senning","name":"Senning(NÖ)","type":"settlement","lat":48.45,"lng":16.21667,"geonames":"https://www.geonames.org/2765154/senning.html","referenced":true,"has_coords":true,"has_geonames":true,"doc_count":1,"decades":[],"file_keys":["f__QGW_3714"]},{"id":"pl__braunau","name":"Braunau am Inn(OÖ)","type":"settlement","lat":48.25628,"lng":13.04343,"geonames":"https://www.geonames.org/2781520/braunau-am-inn.html","referenced":true,"has_coords":true,"has_geonames":true,"doc_count":1,"decades":[],"file_keys":["f__QGW_3727"]},{"id":"pl__bruessel","name":"Brüssel (Belgien)","type":"settlement","lat":50.85045,"lng":4.34878,"geonames":"https://www.geonames.org/2800866/brussels.html","referenced":true,"has_coords":true,"has_geonames":true,"doc_count":1,"decades":[],"file_keys":["f__QGW_3359"]},{"id":"pl__enzersdorf","name":"Enzerdorf (N.Ö.) | Groß-Enzersdorf","type":"settlement","lat":48.20278,"lng":16.55083,"geonames":"https://www.geonames.org/2777836/gross-enzersdorf.html","referenced":true,"has_coords":true,"has_geonames":true,"doc_count":2,"decades":[],"file_keys":["f__QGW_3432","f__QGW_3490"]},{"id":"pl__brunn_am_gebirge","name":"Brunn am Gebirge","type":"settlement","lat":48.10697,"lng":16.28466,"geonames":"https://www.geonames.org/2781321/brunn-am-gebirge.html","referenced":true,"has_coords":true,"has_geonames":true,"doc_count":1,"decades":[],"file_keys":["f__QGW_3608"]},{"id":"pl__meissen","name":"Meissen (Sachsen)","type":"settlement","lat":51.16158,"lng":13.4737,"geonames":"https://www.geonames.org/2872155/meissen.html","referenced":false,"has_coords":true,"has_geonames":true,"doc_count":0,"decades":[]},{"id":"pl__kirchhain_in_der_lausitz","name":"Kirchhain i. d. Lausitz (Sachsen)","type":"settlement","lat":null,"lng":null,"geonames":null,"referenced":true,"has_coords":false,"has_geonames":false,"doc_count":1,"decades":[]},{"id":"pl__seewalchen","name":"Seewalchen","type":"settlement","lat":47.95429,"lng":13.56692,"geonames":"https://www.geonames.org/7873267/seewalchen-am-attersee.html","referenced":false,"has_coords":true,"has_geonames":true,"doc_count":0,"decades":[]},{"id":"pl__cadolzburg","name":"Cadolzburg (Bayern)","type":"settlement","lat":49.4573,"lng":10.85329,"geonames":"https://www.geonames.org/2940428/cadolzburg.html","referenced":false,"has_coords":true,"has_geonames":true,"doc_count":0,"decades":[]},{"id":"pl__muenchen","name":"München (Bayern)","type":"settlement","lat":48.13743,"lng":11.57549,"geonames":"https://www.geonames.org/2867714/munich.html","referenced":true,"has_coords":true,"has_geonames":true,"doc_count":6,"decades":[],"file_keys":["f__Gewerbuch_D_facs_1174_TextRegion_1650525530908_387","f__Gewerbuch_D_facs_451_TextRegion_1655809449663_1007","f__QGW_3379","f__QGW_3397","f__Satzbuch_CD_e00796_1459-09-05","f__Satzbuch_CD_e00996_1454-02-16"]},{"id":"pl__grafendorf","name":"Grafendorf (N.Ö)","type":"settlement","lat":48.14651,"lng":15.55345,"geonames":"https://www.geonames.org/7873019/ober-grafendorf.html","referenced":false,"has_coords":true,"has_geonames":true,"doc_count":0,"decades":[]},{"id":"pl__spitz","name":"Spitz an der Donau","type":"settlement","lat":48.35565,"lng":15.38783,"geonames":null,"referenced":false,"has_coords":true,"has_geonames":false,"doc_count":0,"decades":[]},{"id":"pl__kufstein","name":"Kufstein","type":"settlement","lat":47.58333,"lng":12.16667,"geonames":null,"referenced":false,"has_coords":true,"has_geonames":false,"doc_count":0,"decades":[]},{"id":"pl__st_georgen_an_der_gusen","name":"St. Georgen an der Gusen","type":"settlement","lat":48.27154,"lng":14.44925,"geonames":null,"referenced":false,"has_coords":true,"has_geonames":false,"doc_count":0,"decades":[]},{"id":"pl__st_ulrich","name":"St. Ulrich (VII. Bezirk)","type":"settlement","lat":48.20446,"lng":16.35259,"geonames":"https://www.geonames.org/12358546/st-ulrich.html","referenced":true,"has_coords":true,"has_geonames":true,"doc_count":2,"decades":[],"file_keys":["f__QGW_3530","f__QGW_3552"]},{"id":"pl__duesseldorf","name":"Düsseldorf","type":"settlement","lat":51.225556,"lng":6.782778,"geonames":"http://www.geonames.org/2934246","referenced":false,"has_coords":true,"has_geonames":true,"doc_count":0,"decades":[]},{"id":"pl__dingolfing","name":"Dingolfing","type":"settlement","lat":48.64244,"lng":12.49283,"geonames":"https://www.geonames.org/2936909/dingolfing.html","referenced":true,"has_coords":true,"has_geonames":true,"doc_count":3,"decades":[],"file_keys":["f__Gewerbuch_D_facs_165_TextRegion_1649941074396_904","f__Gewerbuch_D_facs_446_TextRegion_1655809005580_849","f__Satzbuch_CD_e00250_1452-08-09"]},{"id":"pl__dinkelsbuehl","name":"Dinkelsbühl (Bayern)","type":"settlement","lat":49.06942,"lng":10.31985,"geonames":"https://www.geonames.org/2936886/dinkelsbuehl.html","referenced":false,"has_coords":true,"has_geonames":true,"doc_count":0,"decades":[]},{"id":"pl__magdeburg","name":"Magdeburg","type":"settlement","lat":52.12773,"lng":11.62916,"geonames":null,"referenced":false,"has_coords":true,"has_geonames":false,"doc_count":0,"decades":[]},{"id":"pl__stockerau_niederoesterreich","name":"Stockerau (NÖ)","type":"settlement","lat":48.38333,"lng":16.21667,"geonames":null,"referenced":true,"has_coords":true,"has_geonames":false,"doc_count":2,"decades":[],"file_keys":["f__Satzbuch_CD_e01301_1457-04-01","f__Satzbuch_CD_e01697_1450-03-11"]},{"id":"pl__stockstal_niederoesterreich","name":"(Ober-/Nieder-)Stockstal (NÖ)","type":"settlement","lat":null,"lng":null,"geonames":null,"referenced":false,"has_coords":false,"has_geonames":false,"doc_count":0,"decades":[]},{"id":"pl__st_veit_an_der_goelsen","name":"St.Veit a.d. Gölsen","type":"settlement","lat":48.03523,"lng":15.66984,"geonames":"https://www.geonames.org/7871811/sankt-veit-an-der-goelsen.html","referenced":false,"has_coords":true,"has_geonames":true,"doc_count":0,"decades":[]},{"id":"pl__augsburg","name":"Augsburg","type":"settlement","lat":48.37154,"lng":10.89851,"geonames":"https://www.geonames.org/2954172/augsburg.html","referenced":true,"has_coords":true,"has_geonames":true,"doc_count":5,"decades":[],"file_keys":["f__QGW_3344","f__QGW_3631","f__Satzbuch_CD_e00254_1454-04-05","f__Satzbuch_CD_e00314_1458-09-01","f__Satzbuch_CD_e01446_1452-10-23"]},{"id":"pl__auerstal","name":"Auerstal (N.Ö.)","type":"settlement","lat":48.36732,"lng":16.64124,"geonames":"https://www.geonames.org/7871728/auersthal.html","referenced":false,"has_coords":true,"has_geonames":true,"doc_count":0,"decades":[]},{"id":"pl__achau","name":"Achau","type":"settlement","lat":48.07903,"lng":16.38772,"geonames":"https://www.geonames.org/7871849/achau.html","referenced":false,"has_coords":true,"has_geonames":true,"doc_count":0,"decades":[]},{"id":"pl__passau","name":"Passau","type":"settlement","lat":48.5665,"lng":13.43122,"geonames":"https://www.geonames.org/2855328/passau.html","referenced":true,"has_coords":true,"has_geonames":true,"doc_count":1,"decades":[],"file_keys":["f__QGW_3411"]},{"id":"pl__wien","name":"Wien","type":"settlement","lat":48.20849,"lng":16.37208,"geonames":"https://www.geonames.org/2761369/vienna.html","referenced":true,"has_coords":true,"has_geonames":true,"doc_count":46,"decades":[],"file_keys":["f__Gewerbuch_D_facs_1012_TextRegion_1655889133803_382","f__Gewerbuch_D_facs_1037_TextRegion_1654777763412_419","f__Gewerbuch_D_facs_1042_TextRegion_1654700499034_1046","f__Gewerbuch_D_facs_167_TextRegion_1649941440580_975","f__Gewerbuch_D_facs_167_TextRegion_1649941459770_984","f__Gewerbuch_D_facs_261_TextRegion_1652794919717_290","f__Gewerbuch_D_facs_261_TextRegion_1652794999547_299","f__Gewerbuch_D_facs_445_TextRegion_1655808954499_833","f__Gewerbuch_D_facs_461_TextRegion_1655817939664_28","f__Gewerbuch_D_facs_469_TextRegion_1655818551250_257","f__Gewerbuch_D_facs_50_TextRegion_1646410954513_1053","f__Gewerbuch_D_facs_577_TextRegion_1656869404801_3079","f__Gewerbuch_D_facs_585_TextRegion_1656869673178_3317","f__Gewerbuch_D_facs_758_TextRegion_1658304762349_354","f__Gewerbuch_D_facs_92_TextRegion_1649843935545_729","f__Gewerbuch_D_facs_942_TextRegion_1657886177494_948","f__Gewerbuch_D_facs_95_TextRegion_1649844326464_894","f__QGW_3395","f__QGW_3416","f__QGW_3421","f__QGW_3437","f__QGW_3504","f__QGW_3554","f__QGW_3566","f__QGW_3645","f__QGW_3646","f__QGW_3670","f__QGW_3683","f__QGW_3698","f__Satzbuch_CD_e00082_1457-08-06","f__Satzbuch_CD_e00367_1459-04-30","f__Satzbuch_CD_e00409_1451-02-10","f__Satzbuch_CD_e00663_1450-11-20","f__Satzbuch_CD_e00694_1452-07-07","f__Satzbuch_CD_e00713_1453-12-11","f__Satzbuch_CD_e00783_1458-03-03","f__Satzbuch_CD_e00973_1449-05-28","f__Satzbuch_CD_e01159_1454-02-04","f__Satzbuch_CD_e01162_1454-07-15","f__Satzbuch_CD_e01163_1454-07-26","f__Satzbuch_CD_e01285_1454-06-28","f__Satzbuch_CD_e01297_1456-05-07","f__Satzbuch_CD_e01474_1459-08-27","f__Satzbuch_CD_e01572_1451-09-17","f__Satzbuch_CD_e01590_1456-09-27","f__Satzbuch_CD_e01868_1458-01-21"]},{"id":"pl__wien-wienfluss","name":"Wien","type":"river","lat":null,"lng":null,"geonames":null,"referenced":true,"has_coords":false,"has_geonames":false,"doc_count":4,"decades":[]},{"id":"pl__nuernberg","name":"Nürnberg","type":"settlement","lat":49.45421,"lng":11.07752,"geonames":"https://www.geonames.org/2861650/nuernberg.html","referenced":true,"has_coords":true,"has_geonames":true,"doc_count":7,"decades":[],"file_keys":["f__Gewerbuch_D_facs_169_TextRegion_1652080761000_418","f__Gewerbuch_D_facs_760_TextRegion_1658304942209_441","f__QGW_3466","f__QGW_5510","f__Satzbuch_CD_e00055_1448-06-21","f__Satzbuch_CD_e00653_1450-05-13","f__Satzbuch_CD_e01436_1449-08-27"]},{"id":"pl__regensburg","name":"Regensburg","type":"settlement","lat":49.01513,"lng":12.10161,"geonames":"https://www.geonames.org/2849483/regensburg.html","referenced":false,"has_coords":true,"has_geonames":true,"doc_count":0,"decades":[]},{"id":"pl__heiligenstadt","name":"Heiligenstadt","type":"settlement","lat":48.25,"lng":16.36667,"geonames":"https://www.geonames.org/3333500/heiligenstadt.html","referenced":true,"has_coords":true,"has_geonames":true,"doc_count":1,"decades":[],"file_keys":["f__QGW_3515"]},{"id":"pl__gumpoldskirchen","name":"Gumpoldskirchen","type":"settlement","lat":48.04439,"lng":16.27901,"geonames":"https://www.geonames.org/7872977/gumpoldskirchen.html","referenced":false,"has_coords":true,"has_geonames":true,"doc_count":0,"decades":[]},{"id":"pl__guntramsdorf","name":"Guntramsdorf (NÖ)","type":"settlement","lat":48.04687,"lng":16.31384,"geonames":"https://www.geonames.org/2777250/guntramsdorf.html","referenced":true,"has_coords":true,"has_geonames":true,"doc_count":2,"decades":[],"file_keys":["f__QGW_3342","f__Satzbuch_CD_e01462_1455-11-26"]},{"id":"pl__bruenn","name":"Brünn","type":"settlement","lat":49.19522,"lng":16.60796,"geonames":"https://www.geonames.org/3078610/brno.html","referenced":true,"has_coords":true,"has_geonames":true,"doc_count":1,"decades":[],"file_keys":["f__QGW_5510"]},{"id":"pl__zwettl","name":"Zwettl","type":"settlement","lat":48.6,"lng":15.15,"geonames":"https://www.geonames.org/2760417/zwettl-niederoesterreich.html","referenced":false,"has_coords":true,"has_geonames":true,"doc_count":0,"decades":[]},{"id":"pl__drosendorf","name":"Drosendorf","type":"settlement","lat":48.86756,"lng":15.62124,"geonames":"https://www.geonames.org/2780669/drosendorf.html","referenced":false,"has_coords":true,"has_geonames":true,"doc_count":0,"decades":[]},{"id":"pl__erdberg","name":"Erdberg","type":"settlement","lat":48.18521,"lng":16.41894,"geonames":null,"referenced":true,"has_coords":true,"has_geonames":false,"doc_count":1,"decades":[],"file_keys":["f__Gewerbuch_D_facs_762_TextRegion_1658324163317_2036"]},{"id":"pl__bistritz","name":"Bistritz","type":"settlement","lat":null,"lng":null,"geonames":null,"referenced":false,"has_coords":false,"has_geonames":false,"doc_count":0,"decades":[]},{"id":"pl__moedling","name":"Mödling","type":"settlement","lat":48.08605,"lng":16.28921,"geonames":"https://www.geonames.org/2771335/moedling.html","referenced":true,"has_coords":true,"has_geonames":true,"doc_count":8,"decades":[],"file_keys":["f__Gewerbuch_D_facs_461_TextRegion_1655817939664_28","f__Gewerbuch_D_facs_618_TextRegion_1657532740498_247","f__QGW_3329","f__QGW_3432","f__QGW_3490","f__QGW_3675","f__QGW_3690","f__Satzbuch_CD_e00664_1450-12-02"]},{"id":"pl__klosterneuburg","name":"Klosterneuburg","type":"settlement","lat":48.30521,"lng":16.32522,"geonames":"https://www.geonames.org/2773913/klosterneuburg.html","referenced":true,"has_coords":true,"has_geonames":true,"doc_count":5,"decades":[],"file_keys":["f__Gewerbuch_D_facs_172_TextRegion_1649942557286_1139","f__QGW_3537","f__QGW_3558","f__Satzbuch_CD_e00417_1455-12-22","f__Satzbuch_CD_e01701_1450-08-26"]},{"id":"pl__st_veit","name":"St. Veit","type":"settlement","lat":48.18766,"lng":16.2735,"geonames":"https://www.geonames.org/2601119/unter-sankt-veit.html","referenced":true,"has_coords":true,"has_geonames":true,"doc_count":7,"decades":[],"file_keys":["f__Gewerbuch_D_facs_52_TextRegion_1649668126742_76","f__Gewerbuch_D_facs_619_TextRegion_1657532930230_257","f__Gewerbuch_D_facs_750_TextRegion_1658303994950_105","f__QGW_3257","f__QGW_3260","f__QGW_3551","f__Satzbuch_CD_e00761_1456-08-18"]},{"id":"pl__aachen","name":"Aachen","type":"settlement","lat":50.77664,"lng":6.08342,"geonames":"https://www.geonames.org/3247449/aachen.html","referenced":true,"has_coords":true,"has_geonames":true,"doc_count":1,"decades":[],"file_keys":["f__QGW_3239"]},{"id":"pl__knittelfeld","name":"Knittelfeld (Steiermark)","type":"settlement","lat":47.21667,"lng":14.81667,"geonames":"https://www.geonames.org/2773887/knittelfeld.html","referenced":false,"has_coords":true,"has_geonames":true,"doc_count":0,"decades":[]},{"id":"pl__fischamend","name":"Fischamend (N.Ö.)","type":"settlement","lat":48.11573,"lng":16.61395,"geonames":"https://www.geonames.org/7871945/fischamend.html","referenced":true,"has_coords":true,"has_geonames":true,"doc_count":2,"decades":[],"file_keys":["f__Gewerbuch_D_facs_437_TextRegion_1654697480300_566","f__Satzbuch_CD_e00668_1451-02-05"]},{"id":"pl__linz","name":"Linz","type":"settlement","lat":48.30639,"lng":14.28611,"geonames":"https://www.geonames.org/2772400/linz.html","referenced":true,"has_coords":true,"has_geonames":true,"doc_count":2,"decades":[],"file_keys":["f__QGW_5510","f__Satzbuch_CD_e01289_1454-10-07"]},{"id":"pl__lengenfeld_QGW_II_II_register_pg_482","name":"Lengenfeld","type":"settlement","lat":null,"lng":null,"geonames":null,"referenced":true,"has_coords":false,"has_geonames":false,"doc_count":2,"decades":[]},{"id":"pl__nussberg","name":"Nussberg (XIX.Bezirk)","type":"street","lat":48.26588,"lng":16.351,"geonames":"https://www.geonames.org/12216712/erdberg.html","referenced":true,"has_coords":true,"has_geonames":true,"doc_count":1,"decades":[]},{"id":"pl__nussdorf","name":"Nussdorf","type":"settlement","lat":48.25897,"lng":16.36448,"geonames":"https://www.geonames.org/2770400/nussdorf.html","referenced":true,"has_coords":true,"has_geonames":true,"doc_count":8,"decades":[],"file_keys":["f__QGW_3246","f__QGW_3331","f__QGW_3357","f__QGW_3553","f__QGW_3707","f__QGW_3746","f__QGW_3747","f__Satzbuch_CD_e01307_1458-06-30"]},{"id":"pl__niederranna","name":"Niederranna","type":"settlement","lat":48.37649,"lng":15.34978,"geonames":"https://www.geonames.org/2770533/niederranna.html","referenced":false,"has_coords":true,"has_geonames":true,"doc_count":0,"decades":[]},{"id":"pl__gars","name":"Gars","type":"settlement","lat":48.59769,"lng":15.66073,"geonames":"https://www.geonames.org/2778845/gars-am-kamp.html","referenced":false,"has_coords":true,"has_geonames":true,"doc_count":0,"decades":[]},{"id":"pl__hoeflein_an_der_teuffenris","name":"Höflein an der Teuffenris","type":"settlement","lat":null,"lng":null,"geonames":null,"referenced":false,"has_coords":false,"has_geonames":false,"doc_count":0,"decades":[]},{"id":"pl__krems","name":"Krems","type":"settlement","lat":48.40921,"lng":15.61415,"geonames":"https://www.geonames.org/2773549/krems-an-der-donau.html","referenced":false,"has_coords":true,"has_geonames":true,"doc_count":0,"decades":[]},{"id":"pl__gross","name":"Groß","type":"settlement","lat":48.57194,"lng":15.99,"geonames":"https://www.geonames.org/2777910/gross.html","referenced":false,"has_coords":true,"has_geonames":true,"doc_count":0,"decades":[]},{"id":"pl__dornbach","name":"Dornbach","type":"settlement","lat":48.23134719,"lng":16.294202159,"geonames":null,"referenced":true,"has_coords":true,"has_geonames":false,"doc_count":3,"decades":[],"file_keys":["f__Gewerbuch_D_facs_942_TextRegion_1657886177494_948","f__QGW_3683","f__Satzbuch_CD_e00413_1452-07-21"]},{"id":"pl__kitzing","name":"Kitzing (O.Ö.)","type":"settlement","lat":null,"lng":null,"geonames":null,"referenced":true,"has_coords":false,"has_geonames":false,"doc_count":1,"decades":[]},{"id":"pl__meidling","name":"Meidling","type":"settlement","lat":48.16667,"lng":16.33333,"geonames":"https://www.geonames.org/2771706/meidling.html","referenced":true,"has_coords":true,"has_geonames":true,"doc_count":1,"decades":[],"file_keys":["f__QGW_3258"]},{"id":"pl__eferding","name":"Eferding","type":"settlement","lat":null,"lng":null,"geonames":null,"referenced":true,"has_coords":false,"has_geonames":false,"doc_count":5,"decades":[]},{"id":"pl__doebling","name":"Döbling","type":"settlement","lat":48.25,"lng":16.33306,"geonames":"https://www.geonames.org/2780893/gemeindebezirk-doebling.html","referenced":true,"has_coords":true,"has_geonames":true,"doc_count":2,"decades":[],"file_keys":["f__QGW_3350","f__QGW_3708"]},{"id":"pl__salmannsdorf","name":"Salmannsdorf (XVIII. Bezirk)","type":"settlement","lat":48.25,"lng":16.3,"geonames":"https://www.geonames.org/2766841/salmannsdorf.html","referenced":true,"has_coords":true,"has_geonames":true,"doc_count":1,"decades":[],"file_keys":["f__QGW_3616a"]},{"id":"pl__lainz","name":"Lainz (XIII. Bezirk)","type":"settlement","lat":48.17381,"lng":16.28929,"geonames":"https://www.geonames.org/2773124/lainz.html","referenced":false,"has_coords":true,"has_geonames":true,"doc_count":0,"decades":[]},{"id":"pl__strebersdorf","name":"Strebersdorf (NÖ.)","type":"settlement","lat":48.3,"lng":16.38333,"geonames":"https://www.geonames.org/2764162/strebersdorf.html","referenced":false,"has_coords":true,"has_geonames":true,"doc_count":0,"decades":[]},{"id":"pl__marburg","name":"Marburg (Steiermark)","type":"settlement","lat":46.55472,"lng":15.64667,"geonames":"https://www.geonames.org/3195506/maribor.html","referenced":false,"has_coords":true,"has_geonames":true,"doc_count":0,"decades":[]},{"id":"pl__radkersburg","name":"Radkersburg (Steiermark)","type":"settlement","lat":46.68806,"lng":15.98806,"geonames":"https://www.geonames.org/2768119/bad-radkersburg.html","referenced":false,"has_coords":true,"has_geonames":true,"doc_count":0,"decades":[]},{"id":"pl__feistritz","name":"Feistritz (Steiermark)","type":"settlement","lat":47.26802,"lng":14.89334,"geonames":"https://www.geonames.org/2779710/feistritz-bei-knittelfeld.html","referenced":false,"has_coords":true,"has_geonames":true,"doc_count":0,"decades":[]},{"id":"pl__luttenberg","name":"Luttenberg (Steiermark)","type":"settlement","lat":46.52083,"lng":16.1975,"geonames":"https://www.geonames.org/3196307/ljutomer.html","referenced":false,"has_coords":true,"has_geonames":true,"doc_count":0,"decades":[]},{"id":"pl__piesting","name":"Piesting (NÖ)","type":"settlement","lat":47.87358,"lng":16.1251,"geonames":"https://www.geonames.org/2771869/markt-piesting.html","referenced":true,"has_coords":true,"has_geonames":true,"doc_count":1,"decades":[],"file_keys":["f__Gewerbuch_D_facs_620_TextRegion_1658731817715_88"]},{"id":"pl__kottes","name":"Kottes","type":"settlement","lat":48.41667,"lng":15.3,"geonames":"https://www.geonames.org/2773657/kottes.html","referenced":false,"has_coords":true,"has_geonames":true,"doc_count":0,"decades":[]},{"id":"pl__aggsbach","name":"Aggsbach","type":"settlement","lat":48.294,"lng":15.4038,"geonames":null,"referenced":false,"has_coords":true,"has_geonames":false,"doc_count":0,"decades":[]},{"id":"pl__altenburg","name":"Altenburg","type":"settlement","lat":48.6442,"lng":15.5808,"geonames":null,"referenced":false,"has_coords":true,"has_geonames":false,"doc_count":0,"decades":[]},{"id":"pl__raitenhaslach","name":"Raitenhaslach","type":"settlement","lat":48.13016,"lng":12.78705,"geonames":null,"referenced":false,"has_coords":true,"has_geonames":false,"doc_count":0,"decades":[]},{"id":"pl__aquino","name":"Aquino","type":"settlement","lat":41.4938,"lng":13.7052,"geonames":null,"referenced":false,"has_coords":true,"has_geonames":false,"doc_count":0,"decades":[]},{"id":"pl__arezzo","name":"Arezzo","type":"settlement","lat":43.4627,"lng":11.8806,"geonames":null,"referenced":false,"has_coords":true,"has_geonames":false,"doc_count":0,"decades":[]},{"id":"pl__atzgersdorf","name":"Atzgersdorf","type":"settlement","lat":48.1471,"lng":16.2948,"geonames":"https://www.geonames.org/2782272/atzgersdorf.html","referenced":true,"has_coords":true,"has_geonames":true,"doc_count":1,"decades":[],"file_keys":["f__Gewerbuch_D_facs_567_TextRegion_1656867460533_2668"]},{"id":"pl__sulz","name":"Gf. zu Sulz","type":"settlement","lat":null,"lng":null,"geonames":null,"referenced":false,"has_coords":false,"has_geonames":false,"doc_count":0,"decades":[]},{"id":"pl__aversa","name":"Aversa","type":"settlement","lat":40.9725,"lng":14.2074,"geonames":null,"referenced":false,"has_coords":true,"has_geonames":false,"doc_count":0,"decades":[]},{"id":"pl__bagnoregio","name":"Bagnoregio","type":"settlement","lat":42.6284,"lng":12.0896,"geonames":null,"referenced":false,"has_coords":true,"has_geonames":false,"doc_count":0,"decades":[]},{"id":"pl__basel","name":"Basel","type":"settlement","lat":47.5583,"lng":7.5732,"geonames":null,"referenced":true,"has_coords":true,"has_geonames":false,"doc_count":1,"decades":[],"file_keys":["f__Gewerbuch_D_facs_571_TextRegion_1644503532453_2601"]},{"id":"pl__bova","name":"Bova","type":"settlement","lat":37.995,"lng":15.9319,"geonames":null,"referenced":false,"has_coords":true,"has_geonames":false,"doc_count":0,"decades":[]},{"id":"pl__brixen","name":"Brixen","type":"settlement","lat":46.715,"lng":11.6559,"geonames":null,"referenced":false,"has_coords":true,"has_geonames":false,"doc_count":0,"decades":[]},{"id":"pl__antiochia","name":"Antiochia","type":"settlement","lat":36.20228,"lng":36.1609,"geonames":null,"referenced":false,"has_coords":true,"has_geonames":false,"doc_count":0,"decades":[]},{"id":"pl__wissegard","name":"Wissegard","type":"settlement","lat":50.08804,"lng":14.42076,"geonames":null,"referenced":false,"has_coords":true,"has_geonames":false,"doc_count":0,"decades":[]},{"id":"pl__bruck_an_der_mur","name":"Bruck an der Mur","type":"settlement","lat":47.41667,"lng":15.28333,"geonames":"https://www.geonames.org/2781371/bruck-an-der-mur.html","referenced":false,"has_coords":true,"has_geonames":true,"doc_count":0,"decades":[]},{"id":"pl__bruck_an_der_leitha","name":"Bruck an der Leitha (N.Ö.)","type":"settlement","lat":48.0242,"lng":16.7757,"geonames":"https://www.geonames.org/2781373/bruck-an-der-leitha.html","referenced":false,"has_coords":true,"has_geonames":true,"doc_count":0,"decades":[]},{"id":"pl__chiemsee","name":"Chiemsee","type":"settlement","lat":47.8614,"lng":12.399,"geonames":null,"referenced":false,"has_coords":true,"has_geonames":false,"doc_count":0,"decades":[]},{"id":"pl__croja","name":"Croja","type":"settlement","lat":41.5091,"lng":19.7927,"geonames":null,"referenced":false,"has_coords":true,"has_geonames":false,"doc_count":0,"decades":[]},{"id":"pl__petronell","name":"Petronell","type":"settlement","lat":48.11296,"lng":16.86582,"geonames":null,"referenced":false,"has_coords":true,"has_geonames":false,"doc_count":0,"decades":[]},{"id":"pl__erstein","name":"Erstein","type":"settlement","lat":48.4237,"lng":7.6626,"geonames":null,"referenced":false,"has_coords":true,"has_geonames":false,"doc_count":0,"decades":[]},{"id":"pl__falkenstein","name":"Falkenstein","type":"settlement","lat":48.7144,"lng":16.5909,"geonames":null,"referenced":false,"has_coords":true,"has_geonames":false,"doc_count":0,"decades":[]},{"id":"pl__freising","name":"Freising","type":"settlement","lat":48.4035,"lng":11.7487,"geonames":null,"referenced":false,"has_coords":true,"has_geonames":false,"doc_count":0,"decades":[]},{"id":"pl__gaming","name":"Gaming","type":"settlement","lat":47.8568,"lng":15.1315,"geonames":null,"referenced":false,"has_coords":true,"has_geonames":false,"doc_count":0,"decades":[]},{"id":"pl__goldenkron","name":"Goldenkron","type":"settlement","lat":48.8556,"lng":14.3595,"geonames":null,"referenced":false,"has_coords":true,"has_geonames":false,"doc_count":0,"decades":[]},{"id":"pl__arbesthal","name":"Arbesthal","type":"settlement","lat":48.0622,"lng":16.7184,"geonames":null,"referenced":false,"has_coords":true,"has_geonames":false,"doc_count":0,"decades":[]},{"id":"pl__großwardein","name":"Großwardein","type":"settlement","lat":47.0458,"lng":21.9183,"geonames":null,"referenced":false,"has_coords":true,"has_geonames":false,"doc_count":0,"decades":[]},{"id":"pl__gurk","name":"Gurk","type":"settlement","lat":46.8562,"lng":14.282,"geonames":null,"referenced":false,"has_coords":true,"has_geonames":false,"doc_count":0,"decades":[]},{"id":"pl__havelberg","name":"Havelberg","type":"settlement","lat":52.8308,"lng":12.0755,"geonames":null,"referenced":false,"has_coords":true,"has_geonames":false,"doc_count":0,"decades":[]},{"id":"pl__heiligenkreuz","name":"Heiligenkreuz","type":"settlement","lat":48.0426,"lng":16.15292,"geonames":null,"referenced":false,"has_coords":true,"has_geonames":false,"doc_count":0,"decades":[]},{"id":"pl__vorau","name":"Vorau","type":"settlement","lat":47.40282,"lng":15.89829,"geonames":null,"referenced":false,"has_coords":true,"has_geonames":false,"doc_count":0,"decades":[]},{"id":"pl__hietzing","name":"Hietzing","type":"settlement","lat":48.1862,"lng":16.2965,"geonames":null,"referenced":false,"has_coords":true,"has_geonames":false,"doc_count":0,"decades":[]},{"id":"pl__friedberg","name":"Friedberg","type":"settlement","lat":47.43333,"lng":16.05,"geonames":null,"referenced":false,"has_coords":true,"has_geonames":false,"doc_count":0,"decades":[]},{"id":"pl__kirchberg_am_wagram","name":"Kirchberg am Wagram","type":"settlement","lat":48.4139,"lng":15.8883,"geonames":null,"referenced":false,"has_coords":true,"has_geonames":false,"doc_count":0,"decades":[]},{"id":"pl__kierling","name":"Kierling","type":"settlement","lat":48.30997,"lng":16.27616,"geonames":"https://www.geonames.org/2774449/kierling.html","referenced":true,"has_coords":true,"has_geonames":true,"doc_count":1,"decades":[],"file_keys":["f__QGW_3321"]},{"id":"pl__krakau","name":"Krakau","type":"settlement","lat":50.0614,"lng":19.9365,"geonames":null,"referenced":false,"has_coords":true,"has_geonames":false,"doc_count":0,"decades":[]},{"id":"pl__krk","name":"Krk","type":"settlement","lat":45.0752,"lng":14.6169,"geonames":null,"referenced":false,"has_coords":true,"has_geonames":false,"doc_count":0,"decades":[]},{"id":"pl__lassee","name":"Lassee","type":"settlement","lat":48.2331,"lng":16.8222,"geonames":null,"referenced":false,"has_coords":true,"has_geonames":false,"doc_count":0,"decades":[]},{"id":"pl__leiss","name":"Leiss","type":"settlement","lat":null,"lng":null,"geonames":null,"referenced":false,"has_coords":false,"has_geonames":false,"doc_count":0,"decades":[]},{"id":"pl__lavant","name":"Lavant","type":"settlement","lat":46.7786,"lng":12.8403,"geonames":null,"referenced":false,"has_coords":true,"has_geonames":false,"doc_count":0,"decades":[]},{"id":"pl__lilienfeld","name":"Lilienfeld","type":"settlement","lat":48.0131,"lng":15.5966,"geonames":null,"referenced":false,"has_coords":true,"has_geonames":false,"doc_count":0,"decades":[]},{"id":"pl__mahrenberg","name":"Mahrenberg","type":"settlement","lat":49.7384,"lng":10.3532,"geonames":null,"referenced":false,"has_coords":true,"has_geonames":false,"doc_count":0,"decades":[]},{"id":"pl__mailberg","name":"Mailberg","type":"settlement","lat":48.6754,"lng":16.184,"geonames":null,"referenced":false,"has_coords":true,"has_geonames":false,"doc_count":0,"decades":[]},{"id":"pl__mainz","name":"Mainz","type":"settlement","lat":49.9841,"lng":8.2791,"geonames":null,"referenced":false,"has_coords":true,"has_geonames":false,"doc_count":0,"decades":[]},{"id":"pl__maria_enzersdorf","name":"Maria Enzersdorf","type":"settlement","lat":48.1,"lng":16.2833,"geonames":null,"referenced":false,"has_coords":true,"has_geonames":false,"doc_count":0,"decades":[]},{"id":"pl__maria_lanzendorf","name":"Maria Lanzendorf","type":"settlement","lat":48.0962,"lng":16.417,"geonames":null,"referenced":false,"has_coords":true,"has_geonames":false,"doc_count":0,"decades":[]},{"id":"pl__martirano","name":"Martirano","type":"settlement","lat":39.0811,"lng":16.2482,"geonames":null,"referenced":false,"has_coords":true,"has_geonames":false,"doc_count":0,"decades":[]},{"id":"pl__mauerbach","name":"Mauerbach","type":"settlement","lat":48.2529,"lng":16.1725,"geonames":null,"referenced":false,"has_coords":true,"has_geonames":false,"doc_count":0,"decades":[]},{"id":"pl__mauer","name":"Mauer (XIII: Bezirk)","type":"settlement","lat":48.2529,"lng":16.1725,"geonames":"https://www.geonames.org/2771781/wien-mauer.html","referenced":true,"has_coords":true,"has_geonames":true,"doc_count":2,"decades":[],"file_keys":["f__QGW_3350","f__QGW_3723"]},{"id":"pl__melk","name":"Melk","type":"settlement","lat":48.2273,"lng":15.3318,"geonames":null,"referenced":true,"has_coords":true,"has_geonames":false,"doc_count":2,"decades":[],"file_keys":["f__Gewerbuch_D_facs_836_TextRegion_1644502447322_2106","f__QGW_3713"]},{"id":"pl__michaelbeuern","name":"Michaelbeuern","type":"settlement","lat":48.0166,"lng":13.0333,"geonames":null,"referenced":false,"has_coords":true,"has_geonames":false,"doc_count":0,"decades":[]},{"id":"pl__muehlbach","name":"Muehlbach","type":"settlement","lat":46.7965,"lng":11.6675,"geonames":null,"referenced":false,"has_coords":true,"has_geonames":false,"doc_count":0,"decades":[]},{"id":"pl__neuberg","name":"Neuberg","type":"settlement","lat":47.1666,"lng":16.25,"geonames":null,"referenced":false,"has_coords":true,"has_geonames":false,"doc_count":0,"decades":[]},{"id":"pl__neutra","name":"Neutra","type":"settlement","lat":48.3076,"lng":18.0845,"geonames":null,"referenced":false,"has_coords":true,"has_geonames":false,"doc_count":0,"decades":[]},{"id":"pl__oppido_mamertina","name":"Oppido Mamertina","type":"settlement","lat":38.2933,"lng":15.9839,"geonames":null,"referenced":false,"has_coords":true,"has_geonames":false,"doc_count":0,"decades":[]},{"id":"pl__rainbach","name":"Rainbach","type":"settlement","lat":48.55803,"lng":14.47603,"geonames":null,"referenced":false,"has_coords":true,"has_geonames":false,"doc_count":0,"decades":[]},{"id":"pl__perlesreuth","name":"Perlesreuth","type":"settlement","lat":48.7818,"lng":13.4384,"geonames":null,"referenced":false,"has_coords":true,"has_geonames":false,"doc_count":0,"decades":[]},{"id":"pl__probstdorf","name":"Probstdorf","type":"settlement","lat":48.1708,"lng":16.6164,"geonames":null,"referenced":false,"has_coords":true,"has_geonames":false,"doc_count":0,"decades":[]},{"id":"pl__raab","name":"Raab","type":"settlement","lat":48.3524,"lng":13.6469,"geonames":null,"referenced":false,"has_coords":true,"has_geonames":false,"doc_count":0,"decades":[]},{"id":"pl__ruprechtshofen","name":"Ruprechtshofen","type":"settlement","lat":48.1364,"lng":15.2767,"geonames":null,"referenced":false,"has_coords":true,"has_geonames":false,"doc_count":0,"decades":[]},{"id":"pl__salerno","name":"Salerno","type":"settlement","lat":40.6754,"lng":14.7932,"geonames":null,"referenced":false,"has_coords":true,"has_geonames":false,"doc_count":0,"decades":[]},{"id":"pl__sassari","name":"Sassari","type":"settlement","lat":40.7258,"lng":8.5555,"geonames":null,"referenced":false,"has_coords":true,"has_geonames":false,"doc_count":0,"decades":[]},{"id":"pl__schoenenwerd","name":"Schoenenwerd","type":"settlement","lat":47.3731,"lng":8.0095,"geonames":null,"referenced":false,"has_coords":true,"has_geonames":false,"doc_count":0,"decades":[]},{"id":"pl__schoenkirchen","name":"Schoenkirchen","type":"settlement","lat":48.359,"lng":16.6875,"geonames":null,"referenced":false,"has_coords":true,"has_geonames":false,"doc_count":0,"decades":[]},{"id":"pl__schwadorf","name":"Schwadorf","type":"settlement","lat":48.0783,"lng":16.5718,"geonames":null,"referenced":false,"has_coords":true,"has_geonames":false,"doc_count":0,"decades":[]},{"id":"pl__seckau","name":"Seckau","type":"settlement","lat":47.2802,"lng":14.7965,"geonames":null,"referenced":false,"has_coords":true,"has_geonames":false,"doc_count":0,"decades":[]},{"id":"pl__sedlec","name":"Sedlec","type":"settlement","lat":50.0021,"lng":13.4324,"geonames":null,"referenced":false,"has_coords":true,"has_geonames":false,"doc_count":0,"decades":[]},{"id":"pl__seitenstetten","name":"Seitenstetten","type":"settlement","lat":48.0185,"lng":14.6632,"geonames":null,"referenced":false,"has_coords":true,"has_geonames":false,"doc_count":0,"decades":[]},{"id":"pl__senftenberg","name":"Senftenberg","type":"settlement","lat":48.4333,"lng":15.55,"geonames":null,"referenced":false,"has_coords":true,"has_geonames":false,"doc_count":0,"decades":[]},{"id":"pl__soana","name":"Soana","type":"settlement","lat":42.6571,"lng":11.645,"geonames":null,"referenced":false,"has_coords":true,"has_geonames":false,"doc_count":0,"decades":[]},{"id":"pl__st_bernhard","name":"St. Bernhard","type":"settlement","lat":48.6845,"lng":15.5966,"geonames":null,"referenced":false,"has_coords":true,"has_geonames":false,"doc_count":0,"decades":[]},{"id":"pl__starrein","name":"Starrein","type":"settlement","lat":48.7666,"lng":15.7666,"geonames":null,"referenced":false,"has_coords":true,"has_geonames":false,"doc_count":0,"decades":[]},{"id":"pl__tundolskirchen","name":"Tundolskirchen (Ungarn) | Donnerskirchen | Feheregyhaz","type":"settlement","lat":44.8975,"lng":21.41722,"geonames":"https://www.geonames.org/792794/bela-crkva.html","referenced":true,"has_coords":true,"has_geonames":true,"doc_count":1,"decades":[],"file_keys":["f__QGW_3424"]},{"id":"pl__tulbing","name":"Tulbing","type":"settlement","lat":48.2794,"lng":16.122,"geonames":null,"referenced":false,"has_coords":true,"has_geonames":false,"doc_count":0,"decades":[]},{"id":"pl__venafro","name":"Venafro","type":"settlement","lat":41.4827,"lng":14.0477,"geonames":null,"referenced":false,"has_coords":true,"has_geonames":false,"doc_count":0,"decades":[]},{"id":"pl__ostia_velletri","name":"Ostia Velletri","type":"settlement","lat":41.6857,"lng":12.7775,"geonames":null,"referenced":false,"has_coords":true,"has_geonames":false,"doc_count":0,"decades":[]},{"id":"pl__waidhofen_an_der_ybbs","name":"Waidhofen an der Ybbs","type":"settlement","lat":47.9599,"lng":14.7743,"geonames":null,"referenced":true,"has_coords":true,"has_geonames":false,"doc_count":1,"decades":[],"file_keys":["f__Satzbuch_CD_e00972_1449-01-06"]},{"id":"pl__weikersdorf","name":"Weikersdorf","type":"settlement","lat":48.4549,"lng":13.88,"geonames":null,"referenced":false,"has_coords":true,"has_geonames":false,"doc_count":0,"decades":[]},{"id":"pl__hernals","name":"Hernals","type":"settlement","lat":48.2171,"lng":16.3319,"geonames":null,"referenced":true,"has_coords":true,"has_geonames":false,"doc_count":3,"decades":[],"file_keys":["f__QGW_3286","f__QGW_3321","f__QGW_3654"]},{"id":"pl__wilfleinsdorf","name":"Wilfleinsdorf","type":"settlement","lat":48.0166,"lng":16.7166,"geonames":null,"referenced":false,"has_coords":true,"has_geonames":false,"doc_count":0,"decades":[]},{"id":"pl__wullersdorf","name":"Wullersdorf","type":"settlement","lat":48.6349,"lng":16.1166,"geonames":"https://www.geonames.org/7872893/wullersdorf.html","referenced":true,"has_coords":true,"has_geonames":true,"doc_count":1,"decades":[],"file_keys":["f__QGW_3716"]},{"id":"pl__kleinmariazell","name":"Kleinmariazell","type":"settlement","lat":48.03597,"lng":15.97412,"geonames":null,"referenced":false,"has_coords":true,"has_geonames":false,"doc_count":0,"decades":[]},{"id":"pl__palt","name":"Palt","type":"settlement","lat":48.38464,"lng":15.6138,"geonames":null,"referenced":false,"has_coords":true,"has_geonames":false,"doc_count":0,"decades":[]},{"id":"pl__hollenburg","name":"Hollenburg","type":"settlement","lat":48.37894,"lng":15.69071,"geonames":null,"referenced":false,"has_coords":true,"has_geonames":false,"doc_count":0,"decades":[]},{"id":"pl__weikendorf","name":"Weikendorf","type":"settlement","lat":48.34438,"lng":16.76651,"geonames":null,"referenced":false,"has_coords":true,"has_geonames":false,"doc_count":0,"decades":[]},{"id":"pl__kilb","name":"Kilb","type":"settlement","lat":48.10101,"lng":15.4085,"geonames":null,"referenced":false,"has_coords":true,"has_geonames":false,"doc_count":0,"decades":[]},{"id":"pl__pottenstein","name":"Pottenstein","type":"settlement","lat":47.95852,"lng":16.05651,"geonames":null,"referenced":false,"has_coords":true,"has_geonames":false,"doc_count":0,"decades":[]},{"id":"pl__plank","name":"Plank","type":"settlement","lat":48.55723,"lng":15.68669,"geonames":null,"referenced":false,"has_coords":true,"has_geonames":false,"doc_count":0,"decades":[]},{"id":"pl__frauendorf","name":"Frauendorf","type":"settlement","lat":48.56667,"lng":15.93333,"geonames":null,"referenced":true,"has_coords":true,"has_geonames":false,"doc_count":1,"decades":[],"file_keys":["f__Gewerbuch_D_facs_765_TextRegion_1658324531774_2116"]},{"id":"pl__rohrbach","name":"Rohrbach bei Ziersdorf","type":"settlement","lat":48.51838,"lng":15.96056,"geonames":null,"referenced":false,"has_coords":true,"has_geonames":false,"doc_count":0,"decades":[]},{"id":"pl__oberranna","name":"Oberranna","type":"settlement","lat":48.38333,"lng":15.35,"geonames":null,"referenced":false,"has_coords":true,"has_geonames":false,"doc_count":0,"decades":[]},{"id":"pl__obernberg","name":"Obernberg","type":"settlement","lat":null,"lng":null,"geonames":null,"referenced":true,"has_coords":false,"has_geonames":false,"doc_count":1,"decades":[]},{"id":"pl__kapelln","name":"Kapelln","type":"settlement","lat":48.25817,"lng":15.75731,"geonames":null,"referenced":true,"has_coords":true,"has_geonames":false,"doc_count":1,"decades":[],"file_keys":["f__Satzbuch_CD_e00794_1459-06-22"]},{"id":"pl__pyhra","name":"Pyhra","type":"settlement","lat":48.14421,"lng":15.69782,"geonames":null,"referenced":false,"has_coords":true,"has_geonames":false,"doc_count":0,"decades":[]},{"id":"pl__wilhelmsburg","name":"Wilhelmsburg","type":"settlement","lat":48.09691,"lng":15.61266,"geonames":null,"referenced":false,"has_coords":true,"has_geonames":false,"doc_count":0,"decades":[]},{"id":"pl__st_andrae","name":"St. Andrae","type":"settlement","lat":48.2969,"lng":15.71732,"geonames":null,"referenced":false,"has_coords":true,"has_geonames":false,"doc_count":0,"decades":[]},{"id":"pl__boeheimkirchen","name":"Boeheimkirchen","type":"settlement","lat":48.19779,"lng":15.76178,"geonames":null,"referenced":false,"has_coords":true,"has_geonames":false,"doc_count":0,"decades":[]},{"id":"pl__vatikan","name":"Vatikan","type":"settlement","lat":41.90225,"lng":12.4533,"geonames":null,"referenced":false,"has_coords":true,"has_geonames":false,"doc_count":0,"decades":[]},{"id":"pl__haindorf","name":"Haindorf","type":"settlement","lat":48.18028,"lng":15.48774,"geonames":null,"referenced":false,"has_coords":true,"has_geonames":false,"doc_count":0,"decades":[]},{"id":"pl__sitzendorf","name":"Sitzendorf","type":"settlement","lat":48.59841,"lng":15.94254,"geonames":null,"referenced":false,"has_coords":true,"has_geonames":false,"doc_count":0,"decades":[]},{"id":"pl__schoengrabern","name":"Schoengrabern","type":"settlement","lat":48.6,"lng":16.05,"geonames":null,"referenced":false,"has_coords":true,"has_geonames":false,"doc_count":0,"decades":[]},{"id":"pl__duernbach","name":"Duernbach","type":"settlement","lat":48.12055,"lng":15.16736,"geonames":null,"referenced":false,"has_coords":true,"has_geonames":false,"doc_count":0,"decades":[]},{"id":"pl__chur","name":"Chur","type":"settlement","lat":46.84986,"lng":9.53287,"geonames":null,"referenced":false,"has_coords":true,"has_geonames":false,"doc_count":0,"decades":[]},{"id":"pl__eisenburg","name":"Eisenburg","type":"settlement","lat":47.04928,"lng":16.79954,"geonames":null,"referenced":false,"has_coords":true,"has_geonames":false,"doc_count":0,"decades":[]},{"id":"pl__baumgartenberg","name":"Baumgartenberg","type":"settlement","lat":48.20866,"lng":14.74365,"geonames":"https://www.geonames.org/2781940/baumgartenberg.html","referenced":false,"has_coords":true,"has_geonames":true,"doc_count":0,"decades":[]},{"id":"pl__ardagger","name":"Ardagger","type":"settlement","lat":48.15,"lng":14.83333,"geonames":null,"referenced":false,"has_coords":true,"has_geonames":false,"doc_count":0,"decades":[]},{"id":"pl__kleinzell","name":"Kleinzell","type":"settlement","lat":47.9599,"lng":15.72197,"geonames":null,"referenced":false,"has_coords":true,"has_geonames":false,"doc_count":0,"decades":[]},{"id":"pl__hausleiten","name":"Hausleiten","type":"settlement","lat":48.38333,"lng":16.1,"geonames":null,"referenced":false,"has_coords":true,"has_geonames":false,"doc_count":0,"decades":[]},{"id":"pl__olmuetz","name":"Olmuetz","type":"settlement","lat":49.59552,"lng":17.25175,"geonames":null,"referenced":true,"has_coords":true,"has_geonames":false,"doc_count":2,"decades":[],"file_keys":["f__Gewerbuch_D_facs_1088_TextRegion_1644847321168_878","f__Satzbuch_CD_e01438_1449-11-10"]},{"id":"pl__huerm","name":"Huerm","type":"settlement","lat":48.15559,"lng":15.40792,"geonames":null,"referenced":false,"has_coords":true,"has_geonames":false,"doc_count":0,"decades":[]},{"id":"pl__hofstetten","name":"Hofstetten","type":"settlement","lat":48.08646,"lng":15.50437,"geonames":null,"referenced":false,"has_coords":true,"has_geonames":false,"doc_count":0,"decades":[]},{"id":"pl__pillichsdorf","name":"Pillichsdorf","type":"settlement","lat":48.3515,"lng":16.54114,"geonames":null,"referenced":false,"has_coords":true,"has_geonames":false,"doc_count":0,"decades":[]},{"id":"pl__walterskirchen","name":"Walterskirchen","type":"settlement","lat":48.65,"lng":16.66667,"geonames":null,"referenced":false,"has_coords":true,"has_geonames":false,"doc_count":0,"decades":[]},{"id":"pl__garsten","name":"Garsten","type":"settlement","lat":47.99871,"lng":14.40349,"geonames":null,"referenced":false,"has_coords":true,"has_geonames":false,"doc_count":0,"decades":[]},{"id":"pl__st_florian","name":"St. Florian","type":"settlement","lat":8.20568,"lng":14.37836,"geonames":null,"referenced":false,"has_coords":true,"has_geonames":false,"doc_count":0,"decades":[]},{"id":"pl__furth","name":"Furth","type":"settlement","lat":48.37385,"lng":15.61408,"geonames":null,"referenced":false,"has_coords":true,"has_geonames":false,"doc_count":0,"decades":[]},{"id":"pl__schwechat","name":"Schwechat","type":"settlement","lat":48.13333,"lng":16.46667,"geonames":null,"referenced":false,"has_coords":true,"has_geonames":false,"doc_count":0,"decades":[]},{"id":"pl__dobersberg","name":"Dobersberg","type":"settlement","lat":48.92847,"lng":15.31026,"geonames":null,"referenced":false,"has_coords":true,"has_geonames":false,"doc_count":0,"decades":[]},{"id":"pl__wels","name":"Wels","type":"settlement","lat":48.16667,"lng":14.03333,"geonames":null,"referenced":true,"has_coords":true,"has_geonames":false,"doc_count":3,"decades":[],"file_keys":["f__Gewerbuch_D_facs_764_TextRegion_1658324470061_2092","f__Satzbuch_CD_e00436_1457-06-06","f__Satzbuch_CD_e01310_1459-01-24"]},{"id":"pl__weidling","name":"Weidling","type":"settlement","lat":48.40764,"lng":13.65201,"geonames":null,"referenced":false,"has_coords":true,"has_geonames":false,"doc_count":0,"decades":[]},{"id":"pl__ofen","name":"Ofen","type":"settlement","lat":47.5,"lng":19.03333,"geonames":null,"referenced":true,"has_coords":true,"has_geonames":false,"doc_count":2,"decades":[],"file_keys":["f__QGW_5510","f__Satzbuch_CD_e01701_1450-08-26"]},{"id":"pl__langenlois","name":"Langenlois","type":"settlement","lat":48.46667,"lng":15.66667,"geonames":null,"referenced":false,"has_coords":true,"has_geonames":false,"doc_count":0,"decades":[]},{"id":"pl__laab","name":"Laab","type":"settlement","lat":48.15486,"lng":16.17359,"geonames":null,"referenced":false,"has_coords":true,"has_geonames":false,"doc_count":0,"decades":[]},{"id":"pl__kuttenberg","name":"Kuttenberg","type":"settlement","lat":49.94839,"lng":15.26816,"geonames":null,"referenced":false,"has_coords":true,"has_geonames":false,"doc_count":0,"decades":[]},{"id":"pl__kuttenberg-muenzhof_iglauer_schmiede","name":"Münzhof, Iglauer Schmiede zu Kuttenberg","type":"immo","lat":49.94839,"lng":15.26816,"geonames":null,"referenced":true,"has_coords":true,"has_geonames":false,"doc_count":1,"decades":[]},{"id":"pl__muehldorf","name":"Muehldorf","type":"settlement","lat":47.89689,"lng":13.95049,"geonames":null,"referenced":false,"has_coords":true,"has_geonames":false,"doc_count":0,"decades":[]},{"id":"pl__weigelsdorf","name":"Weigelsdorf","type":"settlement","lat":47.95,"lng":16.4,"geonames":null,"referenced":false,"has_coords":true,"has_geonames":false,"doc_count":0,"decades":[]},{"id":"pl__hainburg","name":"Hainburg","type":"settlement","lat":48.14627,"lng":16.94504,"geonames":"https://www.geonames.org/2776988/hainburg-an-der-donau.html","referenced":false,"has_coords":true,"has_geonames":true,"doc_count":0,"decades":[]},{"id":"pl__straubing","name":"Straubing","type":"settlement","lat":48.88126,"lng":12.57385,"geonames":"https://www.geonames.org/2826099/straubing.html","referenced":false,"has_coords":true,"has_geonames":true,"doc_count":0,"decades":[]},{"id":"pl__steyr","name":"Steyr","type":"settlement","lat":48.04274,"lng":14.42127,"geonames":null,"referenced":true,"has_coords":true,"has_geonames":false,"doc_count":1,"decades":[],"file_keys":["f__Gewerbuch_D_facs_1085_TextRegion_1654175493239_1032"]},{"id":"pl__st_lorenzen","name":"St. Lorenzen","type":"settlement","lat":47.48333,"lng":15.36667,"geonames":null,"referenced":false,"has_coords":true,"has_geonames":false,"doc_count":0,"decades":[]},{"id":"pl__ferrara","name":"Ferrara","type":"settlement","lat":44.83333,"lng":11.61667,"geonames":null,"referenced":false,"has_coords":true,"has_geonames":false,"doc_count":0,"decades":[]},{"id":"pl__marchegg","name":"Marchegg","type":"settlement","lat":48.2542,"lng":16.9008,"geonames":null,"referenced":true,"has_coords":true,"has_geonames":false,"doc_count":1,"decades":[],"file_keys":["f__QGW_3542"]},{"id":"pl__freistadt","name":"Freistadt","type":"settlement","lat":48.51103,"lng":14.50453,"geonames":null,"referenced":false,"has_coords":true,"has_geonames":false,"doc_count":0,"decades":[]},{"id":"pl__voecklabruck","name":"Voecklabruck","type":"settlement","lat":48.00279,"lng":13.65652,"geonames":null,"referenced":false,"has_coords":true,"has_geonames":false,"doc_count":0,"decades":[]},{"id":"pl__venedig","name":"Venedig","type":"settlement","lat":45.43713,"lng":12.33265,"geonames":null,"referenced":false,"has_coords":true,"has_geonames":false,"doc_count":0,"decades":[]},{"id":"pl__gobelsburg","name":"Gobelsburg","type":"settlement","lat":48.46057,"lng":15.70032,"geonames":null,"referenced":false,"has_coords":true,"has_geonames":false,"doc_count":0,"decades":[]},{"id":"pl__huetteldorf","name":"Huetteldorf","type":"settlement","lat":48.30432,"lng":15.86306,"geonames":null,"referenced":true,"has_coords":true,"has_geonames":false,"doc_count":4,"decades":[],"file_keys":["f__Gewerbuch_D_facs_265_TextRegion_1659968875845_1056","f__Gewerbuch_D_facs_572_TextRegion_1657197262463_992","f__Gewerbuch_D_facs_764_TextRegion_1658324470061_2092","f__Satzbuch_CD_e01310_1459-01-24"]},{"id":"pl__aquilea","name":"Aquilea","type":"settlement","lat":45.7683,"lng":13.36779,"geonames":null,"referenced":false,"has_coords":true,"has_geonames":false,"doc_count":0,"decades":[]},{"id":"pl__laufen","name":"Laufen","type":"settlement","lat":47.93568,"lng":12.92856,"geonames":null,"referenced":false,"has_coords":true,"has_geonames":false,"doc_count":0,"decades":[]},{"id":"pl__herzogbierbaum","name":"Herzogbierbaum","type":"settlement","lat":48.51667,"lng":16.25,"geonames":null,"referenced":false,"has_coords":true,"has_geonames":false,"doc_count":0,"decades":[]},{"id":"pl__langenwang","name":"Langenwang","type":"settlement","lat":47.56667,"lng":15.61667,"geonames":null,"referenced":false,"has_coords":true,"has_geonames":false,"doc_count":0,"decades":[]},{"id":"pl__zittau","name":"Zittau","type":"settlement","lat":50.89772,"lng":14.80764,"geonames":null,"referenced":false,"has_coords":true,"has_geonames":false,"doc_count":0,"decades":[]},{"id":"pl__emmersdorf","name":"Emmersdorf","type":"settlement","lat":48.25556,"lng":15.3261,"geonames":null,"referenced":false,"has_coords":true,"has_geonames":false,"doc_count":0,"decades":[]},{"id":"pl__untersiebenbrunn","name":"Untersiebenbrunn","type":"settlement","lat":48.25749,"lng":16.75637,"geonames":null,"referenced":false,"has_coords":true,"has_geonames":false,"doc_count":0,"decades":[]},{"id":"pl__lanzendorf","name":"Lanzendorf","type":"settlement","lat":48.11148,"lng":16.43251,"geonames":null,"referenced":false,"has_coords":true,"has_geonames":false,"doc_count":0,"decades":[]},{"id":"pl__unterhautzental","name":"Unterhautzental","type":"settlement","lat":48.43256,"lng":16.14222,"geonames":null,"referenced":false,"has_coords":true,"has_geonames":false,"doc_count":0,"decades":[]},{"id":"pl__pischelsdorf","name":"Pischelsdorf an der Leitha","type":"settlement","lat":48.0,"lng":16.56667,"geonames":null,"referenced":false,"has_coords":true,"has_geonames":false,"doc_count":0,"decades":[]},{"id":"pl__wuernitz","name":"Wuernitz","type":"settlement","lat":48.41667,"lng":16.41667,"geonames":null,"referenced":false,"has_coords":true,"has_geonames":false,"doc_count":0,"decades":[]},{"id":"pl__theras","name":"Theras","type":"settlement","lat":48.73083,"lng":15.78993,"geonames":null,"referenced":false,"has_coords":true,"has_geonames":false,"doc_count":0,"decades":[]},{"id":"pl__ptuj","name":"Ptuj","type":"settlement","lat":46.42005,"lng":15.87018,"geonames":null,"referenced":false,"has_coords":true,"has_geonames":false,"doc_count":0,"decades":[]},{"id":"pl__starnberg","name":"Starnberg","type":"settlement","lat":48.47841,"lng":13.84166,"geonames":null,"referenced":false,"has_coords":true,"has_geonames":false,"doc_count":0,"decades":[]},{"id":"pl__stein-goettweigerhof","name":"Stein-Göttweiger Hof","type":"immo","lat":48.40163,"lng":15.58102,"geonames":null,"referenced":false,"has_coords":true,"has_geonames":false,"doc_count":0,"decades":[]},{"id":"pl__penzing","name":"Penzing","type":"settlement","lat":48.2,"lng":16.26667,"geonames":null,"referenced":false,"has_coords":true,"has_geonames":false,"doc_count":0,"decades":[]},{"id":"pl__haitzendorf","name":"Haitzendorf","type":"settlement","lat":48.43333,"lng":15.73333,"geonames":null,"referenced":false,"has_coords":true,"has_geonames":false,"doc_count":0,"decades":[]},{"id":"pl__rohrendorf_bei_krems","name":"Rohrendorf bei Krems","type":"settlement","lat":48.41952,"lng":15.65603,"geonames":null,"referenced":false,"has_coords":true,"has_geonames":false,"doc_count":0,"decades":[]},{"id":"pl__cividale","name":"Cividale","type":"settlement","lat":46.09019,"lng":13.42861,"geonames":null,"referenced":false,"has_coords":true,"has_geonames":false,"doc_count":0,"decades":[]},{"id":"pl__hennersdorf","name":"Hennersdorf","type":"settlement","lat":48.112278,"lng":16.361944,"geonames":null,"referenced":false,"has_coords":true,"has_geonames":false,"doc_count":0,"decades":[]},{"id":"pl__grein","name":"Grein","type":"settlement","lat":48.227712,"lng":14.855384,"geonames":null,"referenced":false,"has_coords":true,"has_geonames":false,"doc_count":0,"decades":[]},{"id":"pl__lichtenstein","name":"Lichtenstein (NÖ/OÖ)","type":"settlement","lat":48.47949,"lng":14.37896,"geonames":"https://www.geonames.org/11669391/lichtenstein.html","referenced":false,"has_coords":true,"has_geonames":true,"doc_count":0,"decades":[]},{"id":"pl__badendorf","name":"Badendorf","type":"settlement","lat":46.85,"lng":15.6,"geonames":"https://www.geonames.org/2782064/badendorf.html","referenced":true,"has_coords":true,"has_geonames":true,"doc_count":1,"decades":[],"file_keys":["f__QGW_3297"]},{"id":"pl__hain","name":"Hain","type":"settlement","lat":48.23451,"lng":15.31275,"geonames":"https://www.geonames.org/2776999/hain.html","referenced":false,"has_coords":true,"has_geonames":true,"doc_count":0,"decades":[]},{"id":"pl__grinzing","name":"Grinzing","type":"settlement","lat":48.25,"lng":16.33333,"geonames":"https://www.geonames.org/2777937/grinzing.html","referenced":true,"has_coords":true,"has_geonames":true,"doc_count":11,"decades":[],"file_keys":["f__Gewerbuch_D_facs_582_TextRegion_1656869536761_3211","f__Gewerbuch_D_facs_583_TextRegion_1666528869073_2220","f__QGW_3443","f__QGW_3491","f__QGW_3515","f__QGW_3553","f__QGW_3579","f__QGW_3585","f__QGW_3655","f__QGW_3661","f__QGW_3671"]},{"id":"pl__grinzing-peunten","name":"in den peunten","type":"street","lat":null,"lng":null,"geonames":null,"referenced":true,"has_coords":false,"has_geonames":false,"doc_count":1,"decades":[]},{"id":"pl__bisamberg","name":"Bisamberg (N.Ö.)","type":"settlement","lat":48.33452,"lng":16.36789,"geonames":"https://www.geonames.org/7871785/bisamberg.html","referenced":true,"has_coords":true,"has_geonames":true,"doc_count":1,"decades":[],"file_keys":["f__Satzbuch_CD_e01701_1450-08-26"]},{"id":"pl__amelia","name":"Amelia","type":"settlement","lat":42.55783749173057,"lng":12.414505349098452,"geonames":null,"referenced":false,"has_coords":true,"has_geonames":false,"doc_count":0,"decades":[]},{"id":"pl__kremsmuenster","name":"Kremsmuenster","type":"settlement","lat":48.05581490276489,"lng":14.12877170824394,"geonames":null,"referenced":false,"has_coords":true,"has_geonames":false,"doc_count":0,"decades":[]},{"id":"pl__ottenthal","name":"Ottenthal","type":"settlement","lat":48.21026155206415,"lng":16.36262679284615,"geonames":null,"referenced":false,"has_coords":true,"has_geonames":false,"doc_count":0,"decades":[]},{"id":"pl__traiskirchen","name":"Traiskirchen","type":"settlement","lat":48.00964,"lng":16.30118,"geonames":"https://www.geonames.org/7871715/traiskirchen.html","referenced":true,"has_coords":true,"has_geonames":true,"doc_count":1,"decades":[],"file_keys":["f__Gewerbuch_D_facs_934_TextRegion_1644919329616_1851"]},{"id":"pl__wilhering","name":"Wilhering","type":"settlement","lat":null,"lng":null,"geonames":null,"referenced":false,"has_coords":false,"has_geonames":false,"doc_count":0,"decades":[]},{"id":"pl__vichtenstein","name":"Vichtenstein","type":"settlement","lat":48.528889,"lng":13.652222,"geonames":null,"referenced":false,"has_coords":true,"has_geonames":false,"doc_count":0,"decades":[]},{"id":"pl__ladendorf","name":"Ladendorf","type":"settlement","lat":48.53333,"lng":16.48333,"geonames":null,"referenced":false,"has_coords":true,"has_geonames":false,"doc_count":0,"decades":[]},{"id":"pl__hollenstein_an_der_ybbs","name":"Hollenstein an der ybbs","type":"settlement","lat":47.79579,"lng":14.78626,"geonames":null,"referenced":false,"has_coords":true,"has_geonames":false,"doc_count":0,"decades":[]},{"id":"pl__messern","name":"Messern","type":"settlement","lat":48.71667,"lng":15.51667,"geonames":null,"referenced":false,"has_coords":true,"has_geonames":false,"doc_count":0,"decades":[]},{"id":"pl__laxenburg","name":"Laxenburg","type":"settlement","lat":48.06833,"lng":16.35607,"geonames":"https://www.geonames.org/2772810/laxenburg.html","referenced":false,"has_coords":true,"has_geonames":true,"doc_count":0,"decades":[]},{"id":"pl__ernstbrunn","name":"Ernstbrunn","type":"settlement","lat":48.53286,"lng":16.34161,"geonames":null,"referenced":false,"has_coords":true,"has_geonames":false,"doc_count":0,"decades":[]},{"id":"pl__sollenau","name":"Sollenau","type":"settlement","lat":47.90262,"lng":16.24982,"geonames":null,"referenced":false,"has_coords":true,"has_geonames":false,"doc_count":0,"decades":[]},{"id":"pl__wiener_neustadt","name":"Wiener Neustadt","type":"settlement","lat":47.80485,"lng":16.23196,"geonames":"https://www.geonames.org/2761353/wiener-neustadt.html","referenced":true,"has_coords":true,"has_geonames":true,"doc_count":3,"decades":[],"file_keys":["f__Gewerbuch_D_facs_172_TextRegion_1649942562298_1143","f__Gewerbuch_D_facs_218_TextRegion_1650005423842_722","f__QGW_1764"]},{"id":"pl__wiener_wald","name":"Wiener Wald","type":"settlement","lat":null,"lng":null,"geonames":null,"referenced":false,"has_coords":false,"has_geonames":false,"doc_count":0,"decades":[]},{"id":"pl__strasburg","name":"Strasburg","type":"settlement","lat":48.58392,"lng":7.74553,"geonames":"https://www.geonames.org/2973783/strasbourg.html","referenced":true,"has_coords":true,"has_geonames":true,"doc_count":1,"decades":[],"file_keys":["f__QGW_3248"]},{"id":"pl__ravensburg","name":"Ravensburg (Württemberg)","type":"settlement","lat":47.78198,"lng":9.61062,"geonames":"https://www.geonames.org/2849802/ravensburg.html","referenced":true,"has_coords":true,"has_geonames":true,"doc_count":2,"decades":[],"file_keys":["f__Satzbuch_CD_e00412_1451-11-19","f__Satzbuch_CD_e00414_1452-07-21"]},{"id":"pl__ottakring","name":"Ottakring","type":"settlement","lat":48.21667,"lng":16.3,"geonames":"https://www.geonames.org/2769359/ottakring.html","referenced":true,"has_coords":true,"has_geonames":true,"doc_count":8,"decades":[],"file_keys":["f__Gewerbuch_D_facs_426_TextRegion_1644913217683_328","f__QGW_3303","f__QGW_3350","f__QGW_3528","f__QGW_3586","f__QGW_3672","f__Satzbuch_CD_e00615_1448-06-26","f__Satzbuch_CD_e01780_1457-03-17"]},{"id":"pl__perchtoldsdorf","name":"Perchtoldsdorf","type":"settlement","lat":48.11935,"lng":16.26607,"geonames":"https://www.geonames.org/2769110/perchtoldsdorf.html","referenced":true,"has_coords":true,"has_geonames":true,"doc_count":5,"decades":[],"file_keys":["f__Gewerbuch_D_facs_460_TextRegion_1665655419833_123","f__QGW_3590","f__QGW_3608","f__QGW_3720","f__Satzbuch_CD_e01003_1454-10-07"]},{"id":"pl__st_poelten","name":"St. Pölten","type":"settlement","lat":48.2,"lng":15.63333,"geonames":"https://www.geonames.org/2766429/sankt-poelten.html","referenced":true,"has_coords":true,"has_geonames":true,"doc_count":4,"decades":[],"file_keys":["f__Gewerbuch_D_facs_452_TextRegion_1655809635689_1052","f__Gewerbuch_D_facs_465_TextRegion_1655818236158_146","f__Gewerbuch_D_facs_681_TextRegion_1657537097780_832","f__QGW_3678"]},{"id":"pl__sievering","name":"Sievering","type":"settlement","lat":48.25,"lng":16.33333,"geonames":"https://www.geonames.org/2600996/sievering.html","referenced":true,"has_coords":true,"has_geonames":true,"doc_count":10,"decades":[],"file_keys":["f__QGW_3330","f__QGW_3357","f__QGW_3480","f__QGW_3632","f__QGW_3655","f__QGW_3707","f__QGW_3708","f__QGW_3746","f__Stadtbuecher_120","f__Stadtbuecher_4"]},{"id":"pl__sievering-schenkchenperg","name":"am Schenkchenperg","type":"settlement","lat":null,"lng":null,"geonames":null,"referenced":true,"has_coords":false,"has_geonames":false,"doc_count":2,"decades":[]},{"id":"pl__sievering-harnsberg","name":"am Harnsperg","type":"settlement","lat":null,"lng":null,"geonames":null,"referenced":true,"has_coords":false,"has_geonames":false,"doc_count":2,"decades":[]},{"id":"pl__sievering-pfaffenberg","name":"am Pfaffenberg","type":"settlement","lat":48.261696296,"lng":16.308643522,"geonames":null,"referenced":true,"has_coords":true,"has_geonames":false,"doc_count":1,"decades":[],"file_keys":["f__QGW_3480"]},{"id":"pl__sievering-keswassergraben","name":"im Keswassergraben","type":"settlement","lat":null,"lng":null,"geonames":null,"referenced":true,"has_coords":false,"has_geonames":false,"doc_count":2,"decades":[]},{"id":"pl__stein","name":"Stein","type":"settlement","lat":48.40163,"lng":15.58102,"geonames":"https://www.geonames.org/2764553/stein-an-der-donau.html","referenced":false,"has_coords":true,"has_geonames":true,"doc_count":0,"decades":[]},{"id":"pl__enns","name":"Enns","type":"settlement","lat":48.21415,"lng":14.47783,"geonames":"https://www.geonames.org/7872050/enns.html","referenced":true,"has_coords":true,"has_geonames":true,"doc_count":1,"decades":[],"file_keys":["f__QGW_3608"]},{"id":"pl__karlburg","name":"Karlburg","type":"settlement","lat":48.05495,"lng":17.14457,"geonames":"https://www.geonames.org/3057792/rusovce.html","referenced":false,"has_coords":true,"has_geonames":true,"doc_count":0,"decades":[]},{"id":"pl__hernals-eselhart","name":"Eselhart","type":"street","lat":48.2171,"lng":16.3319,"geonames":null,"referenced":true,"has_coords":true,"has_geonames":false,"doc_count":1,"decades":[]},{"id":"pl__kierling-irnveld","name":"Irnveld (bei Kierling)","type":"street","lat":null,"lng":null,"geonames":null,"referenced":true,"has_coords":false,"has_geonames":false,"doc_count":1,"decades":[]},{"id":"pl__klosterneuburg-burg_herzoglich","name":"Herzogliche Burg in Klosterneuburg","type":"street","lat":48.306110371972466,"lng":16.32127071944245,"geonames":null,"referenced":true,"has_coords":true,"has_geonames":false,"doc_count":1,"decades":[]},